{
  "version": 0.6,
  "generator": "Overpass API 0.7.62.8 e802775f",
  "osm3s": {
    "timestamp_osm_base": "2025-08-15T10:21:45Z",
    "timestamp_areas_base": "2025-08-15T05:29:38Z",
    "copyright": "The data included in this document is from www.openstreetmap.org. The data is made available under ODbL."
  },
  "elements": [

{
  "type": "node",
  "id": 306154982,
  "lat": 9.5419057,
  "lon": 76.5843426,
  "tags": {
    "bus": "yes",
    "highway": "bus_stop",
    "name": "Kaithepalam",
    "name:ml": "കൈതപാലം",
    "public_transport": "platform"
  }
},
{
  "type": "node",
  "id": 306214020,
  "lat": 9.5129649,
  "lon": 76.6384211,
  "tags": {
    "bus": "yes",
    "highway": "bus_stop",
    "name": "Nethalloor Junction",
    "public_transport": "platform"
  }
},
{
  "type": "node",
  "id": 306425453,
  "lat": 9.6037393,
  "lon": 76.4329318,
  "tags": {
    "bus": "yes",
    "highway": "bus_stop",
    "name": "Puthen Road",
    "name:ml": "പുത്തൻ റോഡ്",
    "public_transport": "platform",
    "shelter": "yes"
  }
},
{
  "type": "node",
  "id": 343357837,
  "lat": 9.7531367,
  "lon": 76.3913085,
  "tags": {
    "bus": "yes",
    "highway": "bus_stop",
    "name": "Kerala State Road Transport Corporation Bus Stand",
    "phone": "+914829231210",
    "public_transport": "platform"
  }
},
{
  "type": "node",
  "id": 359637381,
  "lat": 9.4630027,
  "lon": 76.8006267,
  "tags": {
    "bus": "yes",
    "highway": "bus_stop",
    "name": "Mukkada",
    "public_transport": "platform"
  }
},
{
  "type": "node",
  "id": 359638286,
  "lat": 9.4840771,
  "lon": 76.8719933,
  "tags": {
    "bus": "yes",
    "highway": "bus_stop",
    "name": "Manjalaruvi Bus Stop",
    "public_transport": "platform"
  }
},
{
  "type": "node",
  "id": 359638466,
  "lat": 9.5026910,
  "lon": 76.8857697,
  "tags": {
    "bus": "yes",
    "highway": "bus_stop",
    "name": "Pulikkunnu Top Bus Stop",
    "public_transport": "platform"
  }
},
{
  "type": "node",
  "id": 594870342,
  "lat": 9.4397580,
  "lon": 76.5605518,
  "tags": {
    "bus": "yes",
    "highway": "bus_stop",
    "name": "Mukkathupady Stop",
    "public_transport": "platform"
  }
},
{
  "type": "node",
  "id": 594884012,
  "lat": 9.8339251,
  "lon": 76.5922895,
  "tags": {
    "bus": "yes",
    "highway": "bus_stop",
    "name": "Puthuveli",
    "public_transport": "platform"
  }
},
{
  "type": "node",
  "id": 678584549,
  "lat": 9.7492616,
  "lon": 76.6441134,
  "tags": {
    "bus": "yes",
    "highway": "bus_stop",
    "public_transport": "platform"
  }
},
{
  "type": "node",
  "id": 679641365,
  "lat": 9.7327128,
  "lon": 76.6307492,
  "tags": {
    "bus": "yes",
    "highway": "bus_stop",
    "name": "Illickal Thazhe",
    "name:ml": "ഇല്ലിക്കല്‍താഴെ ബസ് സ്ടോപ് ",
    "public_transport": "platform"
  }
},
{
  "type": "node",
  "id": 679642711,
  "lat": 9.7377123,
  "lon": 76.6216218,
  "tags": {
    "highway": "bus_stop",
    "name": "andoor",
    "name:ml": "ആണ്ടൂർ"
  }
},
{
  "type": "node",
  "id": 705132921,
  "lat": 9.5822845,
  "lon": 76.7851311,
  "tags": {
    "bus": "yes",
    "highway": "bus_stop",
    "name": "Illimoodu Bus Stop",
    "public_transport": "platform",
    "shelter": "no"
  }
},
{
  "type": "node",
  "id": 705522297,
  "lat": 9.7427283,
  "lon": 76.6110810,
  "tags": {
    "bench": "yes",
    "highway": "bus_stop",
    "name": "Marangattupilly Bus Stop",
    "name:ml": "മരങ്ങാട്ടുപള്ളി ബസ് സ്ടോപ്",
    "shelter": "yes"
  }
},
{
  "type": "node",
  "id": 716880116,
  "lat": 9.7333106,
  "lon": 76.6261049,
  "tags": {
    "bus": "yes",
    "highway": "bus_stop",
    "name": "Kozhikombu",
    "name:ml": "കോഴിക്കൊമ്പ്",
    "public_transport": "platform"
  }
},
{
  "type": "node",
  "id": 725357881,
  "lat": 9.7200520,
  "lon": 76.6514268,
  "tags": {
    "bus": "yes",
    "highway": "bus_stop",
    "name": "Thamarakulam",
    "name:ml": "താമരക്കുളം",
    "public_transport": "platform"
  }
},
{
  "type": "node",
  "id": 764885479,
  "lat": 9.7590652,
  "lon": 76.6357841,
  "tags": {
    "highway": "bus_stop",
    "name": "kudakkachira Pally Kavala;Kudakkachira"
  }
},
{
  "type": "node",
  "id": 854622337,
  "lat": 9.5566250,
  "lon": 76.7134367,
  "tags": {
    "highway": "bus_stop",
    "name": "College padi",
    "name:ml": "കോളേജ്പടി"
  }
},
{
  "type": "node",
  "id": 870011816,
  "lat": 9.8035840,
  "lon": 76.6140319,
  "tags": {
    "highway": "bus_stop",
    "name": "Areekara",
    "name:ml": "അരീക്കര"
  }
},
{
  "type": "node",
  "id": 1015457510,
  "lat": 9.7001066,
  "lon": 76.7583403,
  "tags": {
    "highway": "bus_stop",
    "name": "Panackapalam Junction"
  }
},
{
  "type": "node",
  "id": 1015492643,
  "lat": 9.7524972,
  "lon": 76.7614083,
  "tags": {
    "bus": "yes",
    "highway": "bus_stop",
    "name": "Kailasamattam",
    "public_transport": "platform"
  }
},
{
  "type": "node",
  "id": 1055132385,
  "lat": 9.6560256,
  "lon": 76.8322510,
  "tags": {
    "highway": "bus_stop",
    "name": "Kunnonni",
    "name:ml": "കുന്നോന്നി"
  }
},
{
  "type": "node",
  "id": 1078144106,
  "lat": 9.7035589,
  "lon": 76.7200171,
  "tags": {
    "bench": "yes",
    "highway": "bus_stop",
    "name": "Marygiri Hospital",
    "shelter": "yes"
  }
},
{
  "type": "node",
  "id": 1257775021,
  "lat": 9.7119117,
  "lon": 76.7077240,
  "tags": {
    "highway": "bus_stop",
    "name": "Kochidappadi",
    "name:ml": "കൊച്ചിടപ്പാടി"
  }
},
{
  "type": "node",
  "id": 1311896424,
  "lat": 9.6905074,
  "lon": 76.7427285,
  "tags": {
    "bus": "yes",
    "highway": "bus_stop",
    "name": "Kulam Kavala",
    "name:ml": "കളം കവല",
    "public_transport": "platform",
    "shelter": "yes"
  }
},
{
  "type": "node",
  "id": 1312822824,
  "lat": 9.6360157,
  "lon": 76.7313575,
  "tags": {
    "highway": "bus_stop",
    "name": "Kuruvikkoodu",
    "name:ml": "കുരുവിക്കൂട്"
  }
},
{
  "type": "node",
  "id": 1312823027,
  "lat": 9.5712542,
  "lon": 76.7507571,
  "tags": {
    "highway": "bus_stop",
    "name": "Attikkal",
    "name:ml": "അട്ടിക്കൽ"
  }
},
{
  "type": "node",
  "id": 1568058791,
  "lat": 9.5314892,
  "lon": 76.7844997,
  "tags": {
    "bus": "yes",
    "departures_board": "no",
    "highway": "bus_stop",
    "name": "Mannamplavu",
    "name:ml": "മണ്ണംപ്ലാവ്",
    "public_transport": "platform",
    "shelter": "no"
  }
},
{
  "type": "node",
  "id": 1568058799,
  "lat": 9.5293774,
  "lon": 76.7849040,
  "tags": {
    "highway": "bus_stop",
    "name": "Pallippadi",
    "name:ml": "പള്ളിപ്പടി"
  }
},
{
  "type": "node",
  "id": 1568058829,
  "lat": 9.5247744,
  "lon": 76.7812379,
  "tags": {
    "highway": "bus_stop",
    "name": "Moonnam Mile"
  }
},
{
  "type": "node",
  "id": 1568058840,
  "lat": 9.5192765,
  "lon": 76.7795919,
  "tags": {
    "crossing": "uncontrolled",
    "highway": "bus_stop",
    "name": "Karakkamattam",
    "name:ml": "കരക്കമറ്റം"
  }
},
{
  "type": "node",
  "id": 1568058900,
  "lat": 9.5134602,
  "lon": 76.7814853,
  "tags": {
    "highway": "bus_stop",
    "name": "Valakkayam",
    "name:ml": "വാളക്കയം"
  }
},
{
  "type": "node",
  "id": 1568073084,
  "lat": 9.5386452,
  "lon": 76.7925018,
  "tags": {
    "bus": "yes",
    "departures_board": "no",
    "highway": "bus_stop",
    "name": "Anchilippa Bus Stop",
    "name:ml": "അഞ്ചിലിപ്പ",
    "public_transport": "platform",
    "shelter": "yes"
  }
},
{
  "type": "node",
  "id": 1568073133,
  "lat": 9.5382615,
  "lon": 76.7896677,
  "tags": {
    "bus": "yes",
    "highway": "bus_stop",
    "name": "Kathalangal Padi",
    "name:ml": "കത്തലാങ്കൽ പടി",
    "public_transport": "platform",
    "shelter": "yes"
  }
},
{
  "type": "node",
  "id": 1653512597,
  "lat": 9.6462281,
  "lon": 76.6341294,
  "tags": {
    "highway": "bus_stop",
    "junction": "yes",
    "name": "Alummodu Jn."
  }
},
{
  "type": "node",
  "id": 1672176838,
  "lat": 9.5697175,
  "lon": 76.5951556,
  "tags": {
    "bus": "yes",
    "departures_board": "timetable",
    "highway": "bus_stop",
    "name": "Malakunnam",
    "public_transport": "platform"
  }
},
{
  "type": "node",
  "id": 1725058325,
  "lat": 9.5383464,
  "lon": 76.8925461,
  "tags": {
    "bus": "yes",
    "highway": "bus_stop",
    "name": "Kurishadi",
    "name:ml": "കുരിശടി",
    "public_transport": "platform"
  }
},
{
  "type": "node",
  "id": 1735119315,
  "lat": 9.7424253,
  "lon": 76.6118686,
  "tags": {
    "bench": "yes",
    "bin": "no",
    "highway": "bus_stop",
    "name": "മരങ്ങാട്ടുപിള്ളി",
    "name:en": "Marangttupilly Bus Stop",
    "name:ml": "മരങ്ങാട്ടുപള്ളി ബസ് സ്ടോപ്",
    "shelter": "yes"
  }
},
{
  "type": "node",
  "id": 1782396411,
  "lat": 9.7183985,
  "lon": 76.5598027,
  "tags": {
    "bus": "yes",
    "highway": "bus_stop",
    "name": "vempally north",
    "public_transport": "platform"
  }
},
{
  "type": "node",
  "id": 1842181569,
  "lat": 9.5984192,
  "lon": 76.5282884,
  "tags": {
    "bus": "yes",
    "highway": "bus_stop",
    "name": "Nagampadam Bridge",
    "public_transport": "platform",
    "source": "Bing"
  }
},
{
  "type": "node",
  "id": 1891131955,
  "lat": 9.6172175,
  "lon": 76.5095816,
  "tags": {
    "bus": "yes",
    "highway": "bus_stop",
    "public_transport": "platform"
  }
},
{
  "type": "node",
  "id": 2271219159,
  "lat": 9.7162369,
  "lon": 76.6649628,
  "tags": {
    "bench": "yes",
    "bin": "no",
    "highway": "bus_stop",
    "name": "Nelliyani",
    "name:ml": "നെല്ലിയാനി",
    "shelter": "yes"
  }
},
{
  "type": "node",
  "id": 2339488528,
  "lat": 9.6425316,
  "lon": 76.4998361,
  "tags": {
    "bus": "yes",
    "highway": "bus_stop",
    "public_transport": "platform"
  }
},
{
  "type": "node",
  "id": 2349386320,
  "lat": 9.7460053,
  "lon": 76.7025391,
  "tags": {
    "bus": "yes",
    "highway": "bus_stop",
    "name": "Pravithanam",
    "name:ml": "പ്രവിത്താനം",
    "public_transport": "stop_position"
  }
},
{
  "type": "node",
  "id": 2444946691,
  "lat": 9.5283558,
  "lon": 76.5148446,
  "tags": {
    "bus": "yes",
    "highway": "bus_stop",
    "name": "Pallom",
    "public_transport": "platform"
  }
},
{
  "type": "node",
  "id": 2909563043,
  "lat": 9.5609335,
  "lon": 76.8113637,
  "tags": {
    "bus": "yes",
    "comment": "May not be exact location",
    "highway": "bus_stop",
    "name": "26 Mile Bus Stop",
    "official_name": "Podimattam",
    "public_transport": "platform",
    "shelter": "yes"
  }
},
{
  "type": "node",
  "id": 2914207000,
  "lat": 9.5054324,
  "lon": 76.7511317,
  "tags": {
    "bus": "yes",
    "highway": "bus_stop",
    "name": "Mooleplavu Valavu",
    "public_transport": "platform",
    "shelter": "yes"
  }
},
{
  "type": "node",
  "id": 2914322924,
  "lat": 9.5407919,
  "lon": 76.7625133,
  "tags": {
    "highway": "bus_stop",
    "name": "Shappupadi",
    "name:ml": "ഷാപ്പുപടി"
  }
},
{
  "type": "node",
  "id": 2914322938,
  "lat": 9.5443297,
  "lon": 76.7644304,
  "tags": {
    "highway": "bus_stop",
    "name": "Chirakkadavu Ampalam",
    "name:ml": "ചിറക്കടവ് അമ്പലം"
  }
},
{
  "type": "node",
  "id": 2914322947,
  "lat": 9.5432436,
  "lon": 76.7630182,
  "tags": {
    "bus": "yes",
    "highway": "bus_stop",
    "name": "Adichumakkal Palam",
    "name:ml": "അടിച്ചുമാക്കൽ പാലം",
    "public_transport": "platform"
  }
},
{
  "type": "node",
  "id": 2914334997,
  "lat": 9.5538122,
  "lon": 76.7602301,
  "tags": {
    "highway": "bus_stop",
    "name": "Parakkadavu",
    "name:ml": "പാറക്കടവ്"
  }
},
{
  "type": "node",
  "id": 2988964533,
  "lat": 9.7502593,
  "lon": 76.3984906,
  "tags": {
    "bus": "yes",
    "highway": "bus_stop",
    "name": "Vaikom Dhalavakulam New Private Bus Stand",
    "public_transport": "platform"
  }
},
{
  "type": "node",
  "id": 3007237091,
  "lat": 9.6465232,
  "lon": 76.7530415,
  "tags": {
    "bus": "yes",
    "highway": "bus_stop",
    "name": "Mulakoli Bus Stop",
    "name:ml": "മുളകോലി ബസ് സ്റ്റോപ്പ്",
    "public_transport": "platform",
    "shelter": "no"
  }
},
{
  "type": "node",
  "id": 3098330737,
  "lat": 9.5469821,
  "lon": 76.7937551,
  "tags": {
    "highway": "bus_stop",
    "name": "Mannarakkayam",
    "name:ml": "മണ്ണാറക്കയം"
  }
},
{
  "type": "node",
  "id": 3129241217,
  "lat": 9.6209953,
  "lon": 76.6657732,
  "tags": {
    "bus": "yes",
    "highway": "bus_stop",
    "name": "Moozhoor",
    "public_transport": "platform"
  }
},
{
  "type": "node",
  "id": 3129241341,
  "lat": 9.6149636,
  "lon": 76.6715147,
  "tags": {
    "bus": "yes",
    "highway": "bus_stop",
    "name": "Tharakunnu",
    "public_transport": "platform"
  }
},
{
  "type": "node",
  "id": 3139478629,
  "lat": 9.5099482,
  "lon": 76.5518112,
  "tags": {
    "bus": "yes",
    "highway": "bus_stop",
    "local_ref": "Pathamuttom",
    "name": "Saintgits college bus stop",
    "public_transport": "platform",
    "shelter": "yes"
  }
},
{
  "type": "node",
  "id": 3190301821,
  "lat": 9.6023261,
  "lon": 76.7029810,
  "tags": {
    "bus": "yes",
    "highway": "bus_stop",
    "public_transport": "platform"
  }
},
{
  "type": "node",
  "id": 3190302412,
  "lat": 9.6352111,
  "lon": 76.7163455,
  "tags": {
    "bus": "yes",
    "highway": "bus_stop",
    "name": "Jeerakathupadi",
    "public_transport": "platform"
  }
},
{
  "type": "node",
  "id": 3264891220,
  "lat": 9.5601593,
  "lon": 76.7205518,
  "tags": {
    "bus": "yes",
    "highway": "bus_stop",
    "public_transport": "platform"
  }
},
{
  "type": "node",
  "id": 3264891237,
  "lat": 9.5584636,
  "lon": 76.7249837,
  "tags": {
    "bus": "yes",
    "highway": "bus_stop",
    "name": "pothenplackal padi",
    "public_transport": "platform"
  }
},
{
  "type": "node",
  "id": 3264891255,
  "lat": 9.5580380,
  "lon": 76.7266136,
  "tags": {
    "bus": "yes",
    "highway": "bus_stop",
    "public_transport": "platform"
  }
},
{
  "type": "node",
  "id": 3264893998,
  "lat": 9.5554300,
  "lon": 76.7300736,
  "tags": {
    "bus": "yes",
    "highway": "bus_stop",
    "name": "sasthankavu",
    "public_transport": "platform"
  }
},
{
  "type": "node",
  "id": 3264911204,
  "lat": 9.5473498,
  "lon": 76.7473000,
  "tags": {
    "bus": "yes",
    "highway": "bus_stop",
    "name": "Plavolikkavala",
    "name:ml": "പ്ലാവോലിക്കവല",
    "public_transport": "platform",
    "shelter": "yes"
  }
},
{
  "type": "node",
  "id": 3283733482,
  "lat": 9.5557575,
  "lon": 76.7580748,
  "tags": {
    "highway": "bus_stop",
    "name": "Manjappallikkunnu",
    "name:ml": "മഞ്ഞപ്പള്ളിക്കുന്ന്"
  }
},
{
  "type": "node",
  "id": 3283738049,
  "lat": 9.5642523,
  "lon": 76.7355465,
  "tags": {
    "highway": "bus_stop",
    "name": "19th Mile",
    "name:ml": "പത്തൊമ്പതാം മൈൽ"
  }
},
{
  "type": "node",
  "id": 3283740105,
  "lat": 9.5397099,
  "lon": 76.7422984,
  "tags": {
    "bus": "yes",
    "highway": "bus_stop",
    "name": "Muttathu Kavala",
    "public_transport": "platform"
  }
},
{
  "type": "node",
  "id": 3283740116,
  "lat": 9.5368656,
  "lon": 76.7459604,
  "tags": {
    "highway": "bus_stop",
    "name": "Pouvathu Kavala"
  }
},
{
  "type": "node",
  "id": 3283741994,
  "lat": 9.5250423,
  "lon": 76.7474400,
  "tags": {
    "bus": "yes",
    "highway": "bus_stop",
    "name": "Kailaathukavala",
    "name:ml": "കൈലാതുകവല",
    "public_transport": "platform"
  }
},
{
  "type": "node",
  "id": 3285844980,
  "lat": 9.5236472,
  "lon": 76.7630930,
  "tags": {
    "highway": "bus_stop",
    "name": "Vayanasalappadi",
    "name:ml": "വായനശാലപ്പടി"
  }
},
{
  "type": "node",
  "id": 3285896197,
  "lat": 9.6202195,
  "lon": 76.8225670,
  "tags": {
    "bus": "yes",
    "highway": "bus_stop",
    "local_ref": "Maalika",
    "public_transport": "platform"
  }
},
{
  "type": "node",
  "id": 3613130792,
  "lat": 9.5184030,
  "lon": 76.8897642,
  "tags": {
    "bus": "yes",
    "highway": "bus_stop",
    "name": "Karinilam Bus Stop",
    "public_transport": "platform"
  }
},
{
  "type": "node",
  "id": 3613130927,
  "lat": 9.4923859,
  "lon": 76.8708581,
  "tags": {
    "bus": "yes",
    "highway": "bus_stop",
    "name": "Paramada Bus Stop",
    "public_transport": "platform"
  }
},
{
  "type": "node",
  "id": 3808120888,
  "lat": 9.4297869,
  "lon": 76.9404973,
  "tags": {
    "highway": "bus_stop",
    "name": "Azhuthai Bus Stop"
  }
},
{
  "type": "node",
  "id": 3808120917,
  "lat": 9.4647231,
  "lon": 76.9623316,
  "tags": {
    "highway": "bus_stop",
    "name": "Koonilkadavu Bus stop"
  }
},
{
  "type": "node",
  "id": 3808155019,
  "lat": 9.4804422,
  "lon": 76.9478505,
  "tags": {
    "highway": "bus_stop",
    "name": "Pallipadi Bus stop"
  }
},
{
  "type": "node",
  "id": 3808166921,
  "lat": 9.5089929,
  "lon": 76.9166177,
  "tags": {
    "highway": "bus_stop",
    "name": "Panakkachira Bus stop"
  }
},
{
  "type": "node",
  "id": 3813553621,
  "lat": 9.4549210,
  "lon": 76.8664126,
  "tags": {
    "bus": "yes",
    "highway": "bus_stop",
    "name": "MES College Bus Stop",
    "public_transport": "platform"
  }
},
{
  "type": "node",
  "id": 3813693822,
  "lat": 9.5356953,
  "lon": 76.8869255,
  "tags": {
    "bus": "yes",
    "highway": "bus_stop",
    "public_transport": "platform"
  }
},
{
  "type": "node",
  "id": 3813702505,
  "lat": 9.4977112,
  "lon": 76.8732788,
  "tags": {
    "bus": "yes",
    "highway": "bus_stop",
    "name": "Madampadi Bus Stop",
    "public_transport": "platform"
  }
},
{
  "type": "node",
  "id": 3834118920,
  "lat": 9.4766907,
  "lon": 76.8733444,
  "tags": {
    "bus": "yes",
    "highway": "bus_stop",
    "name": "Peroorthodu Bus Stop",
    "public_transport": "platform"
  }
},
{
  "type": "node",
  "id": 3872684380,
  "lat": 9.5040282,
  "lon": 76.7494817,
  "tags": {
    "highway": "bus_stop",
    "name": "Mooleplavu",
    "name:ml": "മൂലേപ്ലാവ്"
  }
},
{
  "type": "node",
  "id": 3996894847,
  "lat": 9.5133262,
  "lon": 76.8884416,
  "tags": {
    "bus": "yes",
    "highway": "bus_stop",
    "name": "Amaravathi Bus Stop",
    "public_transport": "platform"
  }
},
{
  "type": "node",
  "id": 4045228424,
  "lat": 9.5955110,
  "lon": 76.5283148,
  "tags": {
    "bus": "yes",
    "highway": "bus_stop",
    "name": "Nagampadam Bus Terminal",
    "public_transport": "stop_position"
  }
},
{
  "type": "node",
  "id": 4047071330,
  "lat": 9.6114690,
  "lon": 76.5333026,
  "tags": {
    "bus": "yes",
    "highway": "bus_stop",
    "name": "Chavittuvari Bus Stop",
    "public_transport": "platform"
  }
},
{
  "type": "node",
  "id": 4047071333,
  "lat": 9.6035582,
  "lon": 76.5320409,
  "tags": {
    "bus": "yes",
    "highway": "bus_stop",
    "name": "Choottuveli Bus Stop",
    "public_transport": "platform"
  }
},
{
  "type": "node",
  "id": 4047071365,
  "lat": 9.6076239,
  "lon": 76.5317881,
  "tags": {
    "bench": "yes",
    "bus": "yes",
    "covered": "yes",
    "highway": "bus_stop",
    "name": "Madam",
    "public_transport": "platform"
  }
},
{
  "type": "node",
  "id": 4047071385,
  "lat": 9.5920208,
  "lon": 76.5232780,
  "tags": {
    "bench": "yes",
    "bus": "yes",
    "highway": "bus_stop",
    "name": "Shastri Road Bus Stop",
    "public_transport": "platform",
    "shelter": "yes"
  }
},
{
  "type": "node",
  "id": 4049955938,
  "lat": 9.6709936,
  "lon": 76.5601171,
  "tags": {
    "bus": "yes",
    "highway": "bus_stop",
    "public_transport": "platform"
  }
},
{
  "type": "node",
  "id": 4051411400,
  "lat": 9.6841316,
  "lon": 76.6115808,
  "tags": {
    "bus": "yes",
    "highway": "bus_stop",
    "name": "Kidangoor Bus Stop",
    "public_transport": "platform"
  }
},
{
  "type": "node",
  "id": 4100480028,
  "lat": 9.5328433,
  "lon": 76.5229450,
  "tags": {
    "bus": "yes",
    "highway": "bus_stop",
    "name": "Pannimattom Junction",
    "name:ml": "പന്നിമറ്റം കവല",
    "public_transport": "platform"
  }
},
{
  "type": "node",
  "id": 4100480217,
  "lat": 9.5244831,
  "lon": 76.5248994,
  "tags": {
    "bus": "yes",
    "highway": "bus_stop",
    "name": "Gomathy Kavala Junction",
    "operator": "Prasobh",
    "public_transport": "platform",
    "shelter": "no"
  }
},
{
  "type": "node",
  "id": 4111314394,
  "lat": 9.5252661,
  "lon": 76.5529749,
  "tags": {
    "bus": "yes",
    "highway": "bus_stop",
    "name": "Parakkulam Kurishu",
    "operator": "Prasobh",
    "public_transport": "platform"
  }
},
{
  "type": "node",
  "id": 4111314494,
  "lat": 9.5253030,
  "lon": 76.5511370,
  "tags": {
    "bus": "yes",
    "highway": "bus_stop",
    "name": "Parakkulam",
    "name:ml": "പാറക്കുളം",
    "operator": "Prasobh",
    "public_transport": "platform"
  }
},
{
  "type": "node",
  "id": 4111314793,
  "lat": 9.5560104,
  "lon": 76.5363711,
  "tags": {
    "bus": "yes",
    "highway": "bus_stop",
    "name": "Nalkavala",
    "name:ml": "നാൽക്കവല",
    "public_transport": "platform"
  }
},
{
  "type": "node",
  "id": 4111314794,
  "lat": 9.5543754,
  "lon": 76.5294606,
  "tags": {
    "bus": "yes",
    "highway": "bus_stop",
    "name": "Kaduvakulam",
    "name:ml": "കടുവാക്കുളം",
    "public_transport": "platform",
    "shelter": "yes"
  }
},
{
  "type": "node",
  "id": 4122316589,
  "lat": 9.7848609,
  "lon": 76.6039641,
  "tags": {
    "highway": "bus_stop",
    "name": "Chirakkulam",
    "name:ml": "ചിറക്കുളം"
  }
},
{
  "type": "node",
  "id": 4122499590,
  "lat": 9.5404139,
  "lon": 76.5213723,
  "tags": {
    "bus": "yes",
    "highway": "bus_stop",
    "name": "Karamood",
    "name:ml": "കരമൂട്",
    "public_transport": "platform",
    "shelter": "yes"
  }
},
{
  "type": "node",
  "id": 4122499591,
  "lat": 9.5609720,
  "lon": 76.5428952,
  "tags": {
    "highway": "bus_stop",
    "name": "Boat jetty"
  }
},
{
  "type": "node",
  "id": 4122546589,
  "lat": 9.5478458,
  "lon": 76.5264034,
  "tags": {
    "bus": "yes",
    "highway": "bus_stop",
    "name": "Plamood Jn",
    "public_transport": "platform"
  }
},
{
  "type": "node",
  "id": 4122546689,
  "lat": 9.5362522,
  "lon": 76.5215561,
  "tags": {
    "bus": "yes",
    "highway": "bus_stop",
    "name": "Illimood Junction",
    "name:ml": "ഇല്ലിമൂട് ജംഗ്ഷൻ",
    "public_transport": "platform"
  }
},
{
  "type": "node",
  "id": 4122546691,
  "lat": 9.5596155,
  "lon": 76.5154200,
  "tags": {
    "alt_name": "Mulankuzha",
    "bus": "yes",
    "highway": "bus_stop",
    "name": "Mulamkuzha",
    "name:ml": "മുളംകുഴ",
    "operator": "Prasobh",
    "public_transport": "platform"
  }
},
{
  "type": "node",
  "id": 4122546889,
  "lat": 9.5889303,
  "lon": 76.5531456,
  "tags": {
    "bus": "yes",
    "highway": "bus_stop",
    "name": "Kalathipady",
    "name:ml": "കളത്തിപ്പടി",
    "public_transport": "platform"
  }
},
{
  "type": "node",
  "id": 4226180689,
  "lat": 9.5446452,
  "lon": 76.5189936,
  "tags": {
    "bus": "yes",
    "highway": "bus_stop",
    "name": "Pakkil Junction",
    "operator": "Prasobh",
    "public_transport": "platform"
  }
},
{
  "type": "node",
  "id": 4239404126,
  "lat": 9.5928245,
  "lon": 76.5223914,
  "tags": {
    "bus": "yes",
    "highway": "bus_stop",
    "name": "Baker Junction, Kottayam",
    "public_transport": "platform"
  }
},
{
  "type": "node",
  "id": 4292206989,
  "lat": 9.6025370,
  "lon": 76.5175125,
  "tags": {
    "bus": "yes",
    "highway": "bus_stop",
    "name": "Chungam",
    "name:ml": "ചുങ്കം",
    "public_transport": "platform",
    "shelter": "no"
  }
},
{
  "type": "node",
  "id": 4292206990,
  "lat": 9.6125014,
  "lon": 76.4979104,
  "tags": {
    "bus": "yes",
    "highway": "bus_stop",
    "name": "Aymanam",
    "name:ml": "അയ്മനം",
    "public_transport": "platform"
  }
},
{
  "type": "node",
  "id": 4292210589,
  "lat": 9.6128332,
  "lon": 76.5074098,
  "tags": {
    "bus": "yes",
    "highway": "bus_stop",
    "name": "Kudayampadi",
    "name:ml": "കുടയാംപടി",
    "public_transport": "platform"
  }
},
{
  "type": "node",
  "id": 4312751492,
  "lat": 9.6062487,
  "lon": 76.5136149,
  "tags": {
    "bus": "yes",
    "highway": "bus_stop",
    "name": "Varisserry",
    "name:ml": "വാരിശ്ശേരി;വാരിശേരി",
    "place": "neighbourhood",
    "public_transport": "platform"
  }
},
{
  "type": "node",
  "id": 4334221796,
  "lat": 9.6148720,
  "lon": 76.5559703,
  "tags": {
    "bus": "yes",
    "highway": "bus_stop",
    "name": "vellooparambu",
    "name:ml": "വേളൂപറമ്പ്",
    "public_transport": "platform"
  }
},
{
  "type": "node",
  "id": 4334221797,
  "lat": 9.6086414,
  "lon": 76.5515832,
  "tags": {
    "bus": "yes",
    "highway": "bus_stop",
    "name": "Puzhithara Padi",
    "public_transport": "platform"
  }
},
{
  "type": "node",
  "id": 4334224693,
  "lat": 9.6056641,
  "lon": 76.5453874,
  "tags": {
    "bus": "yes",
    "highway": "bus_stop",
    "name": "Kosamattom Kavala",
    "public_transport": "platform"
  }
},
{
  "type": "node",
  "id": 4334306690,
  "lat": 9.6131934,
  "lon": 76.5598977,
  "tags": {
    "bus": "yes",
    "highway": "bus_stop",
    "name": "Moscow junction",
    "public_transport": "platform"
  }
},
{
  "type": "node",
  "id": 4334343491,
  "lat": 9.5910107,
  "lon": 76.5640960,
  "tags": {
    "bus": "yes",
    "highway": "bus_stop",
    "name": "Vadavathoor Junction",
    "name:ml": "വടവാതൂർ",
    "public_transport": "platform"
  }
},
{
  "type": "node",
  "id": 4388711399,
  "lat": 9.6440436,
  "lon": 76.5904904,
  "tags": {
    "alt_name:en": "Arumanur",
    "bus": "yes",
    "highway": "bus_stop",
    "name": "Arumanoor",
    "name:ml": "അറുമാനൂർ",
    "public_transport": "platform"
  }
},
{
  "type": "node",
  "id": 4416368609,
  "lat": 9.6123950,
  "lon": 76.5039088,
  "tags": {
    "bus": "yes",
    "highway": "bus_stop",
    "name": "Pandavam Bus Stop",
    "name:ml": "പാണ്ഡവം",
    "public_transport": "platform"
  }
},
{
  "type": "node",
  "id": 4433816089,
  "lat": 9.7817849,
  "lon": 76.6575723,
  "tags": {
    "highway": "bus_stop",
    "name": "Chirakkandam",
    "name:en": "Chirakandam",
    "name:ml": "ചിറകണ്ടം"
  }
},
{
  "type": "node",
  "id": 4441561988,
  "lat": 9.5260309,
  "lon": 76.7941229,
  "tags": {
    "bus": "yes",
    "highway": "bus_stop",
    "name": "Njallamattom Vayal",
    "public_transport": "platform"
  }
},
{
  "type": "node",
  "id": 4441586122,
  "lat": 9.5377193,
  "lon": 76.7619336,
  "tags": {
    "highway": "bus_stop",
    "name": "SRV Junction"
  }
},
{
  "type": "node",
  "id": 4441813187,
  "lat": 9.5452055,
  "lon": 76.7754887,
  "tags": {
    "highway": "bus_stop",
    "name": "Gramadeepam",
    "name:ml": "ഗ്രാമദീപം"
  }
},
{
  "type": "node",
  "id": 4449114303,
  "lat": 9.5397591,
  "lon": 76.7362136,
  "tags": {
    "highway": "bus_stop",
    "name": "Cherppathu Kavala",
    "public_transport": "platform",
    "shelter": "yes"
  }
},
{
  "type": "node",
  "id": 4450415325,
  "lat": 9.5636641,
  "lon": 76.7615896,
  "tags": {
    "bus": "yes",
    "highway": "bus_stop",
    "name": "KVMS Junction",
    "public_transport": "platform"
  }
},
{
  "type": "node",
  "id": 4450423829,
  "lat": 9.5577534,
  "lon": 76.7643753,
  "tags": {
    "bench": "no",
    "bus": "yes",
    "covered": "no",
    "highway": "bus_stop",
    "name": "KVMS",
    "name:ml": "കെ.വി.എം.എസ്.",
    "public_transport": "stop_position",
    "shelter": "no"
  }
},
{
  "type": "node",
  "id": 4461835689,
  "lat": 9.5492826,
  "lon": 76.7628291,
  "tags": {
    "highway": "bus_stop",
    "name": "Pulimoodu",
    "name:ml": "പുളിമൂട്"
  }
},
{
  "type": "node",
  "id": 4462727855,
  "lat": 9.5454183,
  "lon": 76.7540890,
  "tags": {
    "bus": "yes",
    "highway": "bus_stop",
    "name": "Kalampukattu Kavala",
    "name:ml": "കളമ്പുകാട്ടുകവല",
    "public_transport": "platform",
    "shelter": "yes"
  }
},
{
  "type": "node",
  "id": 4478326834,
  "lat": 9.5598696,
  "lon": 76.7161192,
  "tags": {
    "bus": "yes",
    "highway": "bus_stop",
    "public_transport": "platform"
  }
},
{
  "type": "node",
  "id": 4481278420,
  "lat": 9.5408606,
  "lon": 76.7794481,
  "tags": {
    "highway": "bus_stop",
    "name": "Manakkattu temple",
    "name:ml": "മണക്കാട്ടമ്പലം"
  }
},
{
  "type": "node",
  "id": 4504628369,
  "lat": 9.5376079,
  "lon": 76.7336562,
  "tags": {
    "bus": "yes",
    "highway": "bus_stop",
    "public_transport": "platform",
    "shelter": "yes"
  }
},
{
  "type": "node",
  "id": 4512992563,
  "lat": 9.5404484,
  "lon": 76.7277684,
  "tags": {
    "bus": "yes",
    "highway": "bus_stop",
    "public_transport": "platform",
    "shelter": "no"
  }
},
{
  "type": "node",
  "id": 4525649590,
  "lat": 9.7895651,
  "lon": 76.6628843,
  "tags": {
    "highway": "bus_stop",
    "name": "Vellilappilly",
    "name:en": "Vellilappilly",
    "name:ml": "വെള്ളിലാപ്പിള്ളി"
  }
},
{
  "type": "node",
  "id": 4528247911,
  "lat": 9.5364062,
  "lon": 76.7565718,
  "tags": {
    "highway": "bus_stop",
    "name": "Thekkethukavala",
    "name:ml": "തെക്കേത്തുകവല"
  }
},
{
  "type": "node",
  "id": 4545803289,
  "lat": 9.6687755,
  "lon": 76.5518388,
  "tags": {
    "bus": "yes",
    "highway": "bus_stop",
    "name": "Kodathi Padi Junction",
    "name:en": "Kodathi Padi Junction",
    "public_transport": "platform"
  }
},
{
  "type": "node",
  "id": 4550892625,
  "lat": 9.5650373,
  "lon": 76.7463181,
  "tags": {
    "alt_name": "Irupatham Mile",
    "highway": "bus_stop",
    "name": "20th Mile",
    "name:ml": "ഇരുപതാം മൈൽ"
  }
},
{
  "type": "node",
  "id": 4563417482,
  "lat": 9.5377120,
  "lon": 76.7487102,
  "tags": {
    "highway": "bus_stop",
    "name": "Kurangan Mala",
    "name:ml": "കുരങ്ങൻ മല"
  }
},
{
  "type": "node",
  "id": 4609002836,
  "lat": 9.5283044,
  "lon": 76.7438234,
  "tags": {
    "bus": "yes",
    "highway": "bus_stop",
    "name": "Bhajanamadom Junction",
    "name:ml": "ഭജനമഠം കവല",
    "public_transport": "platform"
  }
},
{
  "type": "node",
  "id": 4620721921,
  "lat": 9.5409870,
  "lon": 76.7091548,
  "tags": {
    "highway": "bus_stop",
    "name": "Thavalappara",
    "name:ml": "തവളപ്പാറ"
  }
},
{
  "type": "node",
  "id": 4621636483,
  "lat": 9.5536225,
  "lon": 76.7339247,
  "tags": {
    "bus": "yes",
    "highway": "bus_stop",
    "name": "chappath",
    "public_transport": "platform"
  }
},
{
  "type": "node",
  "id": 4647564094,
  "lat": 9.5206417,
  "lon": 76.8140093,
  "tags": {
    "bus": "yes",
    "highway": "bus_stop",
    "name": "Thottamkavala Bus Stop",
    "public_transport": "platform",
    "ref": "unknown"
  }
},
{
  "type": "node",
  "id": 4681837053,
  "lat": 9.6491680,
  "lon": 76.7782223,
  "tags": {
    "bench": "yes",
    "highway": "bus_stop",
    "name": "Thanninavathil Bus Stop",
    "name:ml": "തണ്ണിനാംവാതിൽ ബസ് സ്റ്റോപ്പ്",
    "shelter": "yes"
  }
},
{
  "type": "node",
  "id": 4683340310,
  "lat": 9.6291145,
  "lon": 76.4846900,
  "tags": {
    "highway": "bus_stop"
  }
},
{
  "type": "node",
  "id": 4703722604,
  "lat": 9.6285503,
  "lon": 76.8384214,
  "tags": {
    "highway": "bus_stop",
    "name": "Pathampuzha",
    "name:ml": "പാതാമ്പുഴ",
    "wikidata": "Q7144690",
    "wikipedia": "en:Pathampuzha"
  }
},
{
  "type": "node",
  "id": 4730541585,
  "lat": 9.5634169,
  "lon": 76.7138450,
  "tags": {
    "bus": "yes",
    "highway": "bus_stop",
    "public_transport": "platform"
  }
},
{
  "type": "node",
  "id": 4817115017,
  "lat": 9.5786099,
  "lon": 76.7440394,
  "tags": {
    "alt_name": "Onnam mile",
    "highway": "bus_stop",
    "name": "1st Mile",
    "name:ml": "ഒന്നാം മൈൽ"
  }
},
{
  "type": "node",
  "id": 5018097022,
  "lat": 9.7823274,
  "lon": 76.5975266,
  "tags": {
    "highway": "bus_stop",
    "name": "Poovathinkal",
    "name:en": "Poovathinkal"
  }
},
{
  "type": "node",
  "id": 5018097622,
  "lat": 9.7707412,
  "lon": 76.6106092,
  "tags": {
    "highway": "bus_stop"
  }
},
{
  "type": "node",
  "id": 5018097623,
  "lat": 9.7762328,
  "lon": 76.6128734,
  "tags": {
    "highway": "bus_stop"
  }
},
{
  "type": "node",
  "id": 5094000623,
  "lat": 9.5263185,
  "lon": 76.5460730,
  "tags": {
    "bus": "yes",
    "highway": "bus_stop",
    "name": "Nellickal Bus Stop",
    "name:en": "Nellickal",
    "operator": "Prasobh",
    "public_transport": "platform"
  }
},
{
  "type": "node",
  "id": 5179559221,
  "lat": 9.5609568,
  "lon": 76.5286106,
  "tags": {
    "bus": "yes",
    "highway": "bus_stop",
    "name": "Diwan Kavala",
    "public_transport": "platform",
    "shelter": "yes"
  }
},
{
  "type": "node",
  "id": 5179559222,
  "lat": 9.5632889,
  "lon": 76.5258501,
  "tags": {
    "highway": "bus_stop",
    "name": "Kuruppumpady"
  }
},
{
  "type": "node",
  "id": 5179559421,
  "lat": 9.5584506,
  "lon": 76.5291732,
  "tags": {
    "bus": "yes",
    "highway": "bus_stop",
    "name": "Diwanpuram",
    "public_transport": "platform"
  }
},
{
  "type": "node",
  "id": 5220127274,
  "lat": 9.5922115,
  "lon": 76.5283634,
  "tags": {
    "bus": "yes",
    "highway": "bus_stop",
    "name": "Jubilee Park Bus Stop",
    "name:ml": "ജൂബിലി പാർക്ക് ബസ്‌സ്റ്റോപ്പ്",
    "public_transport": "platform"
  }
},
{
  "type": "node",
  "id": 5263465562,
  "lat": 9.6709242,
  "lon": 76.7810420,
  "tags": {
    "bus": "yes",
    "departures_board": "yes",
    "highway": "bus_stop",
    "name": "Veyilkanampara Bus Stop",
    "name:ml": "വെയില്‍കാണാംപാറ ബസ് സ്റ്റോപ്പ്",
    "public_transport": "platform",
    "shelter": "yes"
  }
},
{
  "type": "node",
  "id": 5352825606,
  "lat": 9.5688801,
  "lon": 76.6353904,
  "tags": {
    "bus": "yes",
    "highway": "bus_stop",
    "name": "Kalachantha",
    "name:ml": "കാളച്ചന്ത",
    "public_transport": "platform"
  }
},
{
  "type": "node",
  "id": 5472319795,
  "lat": 9.6289069,
  "lon": 76.7715403,
  "tags": {
    "bench": "yes",
    "bus": "yes",
    "highway": "bus_stop",
    "lit": "yes",
    "name": "Rose Junction Bus Stop",
    "public_transport": "platform",
    "shelter": "yes"
  }
},
{
  "type": "node",
  "id": 5803380453,
  "lat": 9.5748395,
  "lon": 76.6203693,
  "tags": {
    "bus": "yes",
    "highway": "bus_stop",
    "name": "Nedumkuzhy",
    "public_transport": "platform"
  }
},
{
  "type": "node",
  "id": 5881727985,
  "lat": 9.5505636,
  "lon": 76.5621184,
  "tags": {
    "bus": "yes",
    "highway": "bus_stop",
    "name": "Iravinalloor",
    "name:en": "Iravinalloor (Eramalloor)",
    "public_transport": "platform"
  }
},
{
  "type": "node",
  "id": 5881739185,
  "lat": 9.5776883,
  "lon": 76.5427200,
  "tags": {
    "bus": "yes",
    "highway": "bus_stop",
    "name": "ദേവലോകം",
    "name:en": "Devalokam",
    "public_transport": "platform"
  }
},
{
  "type": "node",
  "id": 5882274585,
  "lat": 9.5914807,
  "lon": 76.5315490,
  "tags": {
    "bus": "yes",
    "highway": "bus_stop",
    "name": "Logos Junction",
    "public_transport": "platform"
  }
},
{
  "type": "node",
  "id": 5977134475,
  "lat": 9.5004901,
  "lon": 76.5476631,
  "tags": {
    "bus": "yes",
    "highway": "bus_stop",
    "name": "Kappyarukavala Bus Stop",
    "public_transport": "stop_position"
  }
},
{
  "type": "node",
  "id": 5977134650,
  "lat": 9.5273789,
  "lon": 76.5448162,
  "tags": {
    "bus": "yes",
    "highway": "bus_stop",
    "name": "Shapu Kavala",
    "public_transport": "stop_position"
  }
},
{
  "type": "node",
  "id": 5977185927,
  "lat": 9.6015181,
  "lon": 76.5442913,
  "tags": {
    "bus": "yes",
    "highway": "bus_stop",
    "name": "Ayamanathupuzha Junction",
    "public_transport": "platform"
  }
},
{
  "type": "node",
  "id": 6232879289,
  "lat": 9.6483174,
  "lon": 76.5209940,
  "tags": {
    "bus": "yes",
    "highway": "bus_stop",
    "name": "Mannanam Bus Stop",
    "public_transport": "stop_position"
  }
},
{
  "type": "node",
  "id": 6232879290,
  "lat": 9.6473085,
  "lon": 76.5186212,
  "tags": {
    "bus": "yes",
    "highway": "bus_stop",
    "name": "Mannanam Bus Stop Downtown",
    "public_transport": "platform"
  }
},
{
  "type": "node",
  "id": 6236344805,
  "lat": 9.6432352,
  "lon": 76.5174013,
  "tags": {
    "bus": "yes",
    "highway": "bus_stop",
    "public_transport": "platform"
  }
},
{
  "type": "node",
  "id": 6236356966,
  "lat": 9.6377500,
  "lon": 76.5150492,
  "tags": {
    "bus": "yes",
    "highway": "bus_stop",
    "public_transport": "platform"
  }
},
{
  "type": "node",
  "id": 6315533659,
  "lat": 9.6368312,
  "lon": 76.7764230,
  "tags": {
    "bench": "yes",
    "bus": "yes",
    "highway": "bus_stop",
    "name": "Chemmalamattom Bus Stop",
    "name:ml": "ചെമ്മലമറ്റം ബസ് സ്റ്റോപ്പ്‌",
    "public_transport": "platform",
    "wheelchair": "no"
  }
},
{
  "type": "node",
  "id": 6325126286,
  "lat": 9.5887173,
  "lon": 76.5378407,
  "tags": {
    "bus": "yes",
    "highway": "bus_stop",
    "name": "Plantation",
    "public_transport": "platform"
  }
},
{
  "type": "node",
  "id": 6325126287,
  "lat": 9.5874240,
  "lon": 76.5438435,
  "tags": {
    "bus": "yes",
    "description": "Kottayam- Kumily Road",
    "highway": "bus_stop",
    "name": "Kanjikuzhi",
    "public_transport": "platform"
  }
},
{
  "type": "node",
  "id": 6325150495,
  "lat": 9.5892532,
  "lon": 76.5708605,
  "tags": {
    "bench": "yes",
    "bin": "no",
    "bus": "yes",
    "highway": "bus_stop",
    "lit": "no",
    "name": "Madhavanpadi",
    "name:ml": "മാധവൻപടി",
    "public_transport": "platform",
    "shelter": "yes"
  }
},
{
  "type": "node",
  "id": 6354450613,
  "lat": 9.5662444,
  "lon": 76.5846365,
  "tags": {
    "bus": "yes",
    "highway": "bus_stop",
    "name": "kaattippady",
    "public_transport": "platform"
  }
},
{
  "type": "node",
  "id": 6363960994,
  "lat": 9.6456155,
  "lon": 76.7609510,
  "tags": {
    "bus": "yes",
    "highway": "bus_stop",
    "name": "Mankuth Bus Stop",
    "public_transport": "platform"
  }
},
{
  "type": "node",
  "id": 6387312092,
  "lat": 9.5606610,
  "lon": 76.6779067,
  "tags": {
    "highway": "bus_stop",
    "name": "Bus stop"
  }
},
{
  "type": "node",
  "id": 6411149274,
  "lat": 9.6169359,
  "lon": 76.7771903,
  "tags": {
    "bus": "yes",
    "highway": "bus_stop",
    "name": "Kalaketty Bus Stop",
    "public_transport": "platform"
  }
},
{
  "type": "node",
  "id": 6532101186,
  "lat": 9.5304799,
  "lon": 76.8133055,
  "tags": {
    "bus": "yes",
    "highway": "bus_stop",
    "name": "Panacheppally",
    "public_transport": "platform"
  }
},
{
  "type": "node",
  "id": 6611449840,
  "lat": 9.6556786,
  "lon": 76.7230368,
  "tags": {
    "bus": "yes",
    "departures_board": "no",
    "highway": "bus_stop",
    "name": "Paika Pinnakkanad Bus Stop",
    "public_transport": "platform",
    "shelter": "no"
  }
},
{
  "type": "node",
  "id": 6611449857,
  "lat": 9.6572062,
  "lon": 76.7368006,
  "tags": {
    "bus": "yes",
    "departures_board": "no",
    "highway": "bus_stop",
    "name": "Ambalavayal Bus Stop",
    "public_transport": "platform",
    "shelter": "no"
  }
},
{
  "type": "node",
  "id": 6611449878,
  "lat": 9.6481687,
  "lon": 76.7441074,
  "tags": {
    "bus": "yes",
    "highway": "bus_stop",
    "name": "Nadapuraku Bus Stop",
    "public_transport": "platform",
    "shelter": "no"
  }
},
{
  "type": "node",
  "id": 6897378037,
  "lat": 9.5651118,
  "lon": 76.7654918,
  "tags": {
    "bench": "yes",
    "bus": "yes",
    "highway": "bus_stop",
    "name": "shanthi bus stop",
    "public_transport": "platform",
    "shelter": "yes"
  }
},
{
  "type": "node",
  "id": 6897691716,
  "lat": 9.5365114,
  "lon": 76.7564569,
  "tags": {
    "bus": "yes",
    "highway": "bus_stop",
    "public_transport": "platform"
  }
},
{
  "type": "node",
  "id": 6897691725,
  "lat": 9.5040802,
  "lon": 76.7492928,
  "tags": {
    "bus": "yes",
    "highway": "bus_stop",
    "name": "muleplavu",
    "public_transport": "platform"
  }
},
{
  "type": "node",
  "id": 6917870236,
  "lat": 9.5859520,
  "lon": 76.7838125,
  "tags": {
    "bus": "yes",
    "highway": "bus_stop",
    "name": "Villani Bus Stop",
    "public_transport": "platform",
    "shelter": "yes"
  }
},
{
  "type": "node",
  "id": 6917912796,
  "lat": 9.5901206,
  "lon": 76.7822568,
  "tags": {
    "bus": "yes",
    "highway": "bus_stop",
    "name": "Manjapally Bus Stop",
    "public_transport": "platform"
  }
},
{
  "type": "node",
  "id": 6917912797,
  "lat": 9.5936931,
  "lon": 76.7817085,
  "tags": {
    "bus": "yes",
    "highway": "bus_stop",
    "name": "Punnachodu Bus Stop",
    "public_transport": "platform"
  }
},
{
  "type": "node",
  "id": 6917912798,
  "lat": 9.5985562,
  "lon": 76.7796530,
  "tags": {
    "bus": "yes",
    "highway": "bus_stop",
    "name": "Munnam Mile Bus Stop",
    "public_transport": "platform"
  }
},
{
  "type": "node",
  "id": 6917912800,
  "lat": 9.6154908,
  "lon": 76.7750175,
  "tags": {
    "bench": "yes",
    "bus": "yes",
    "departures_board": "no",
    "highway": "bus_stop",
    "name": "Adivaram Bus Stop",
    "public_transport": "platform",
    "shelter": "yes"
  }
},
{
  "type": "node",
  "id": 6982140353,
  "lat": 9.6411434,
  "lon": 76.6490653,
  "tags": {
    "bus": "yes",
    "highway": "bus_stop",
    "name": "Tachilangadu Bus Stop",
    "public_transport": "platform"
  }
},
{
  "type": "node",
  "id": 7095262587,
  "lat": 9.6685620,
  "lon": 76.5391146,
  "tags": {
    "bus": "yes",
    "highway": "bus_stop",
    "name": "Athirampuzha",
    "name:ml": "അതിരമ്പുഴ",
    "public_transport": "platform"
  }
},
{
  "type": "node",
  "id": 7118556043,
  "lat": 9.6713521,
  "lon": 76.5470243,
  "tags": {
    "bus": "yes",
    "highway": "bus_stop",
    "public_transport": "platform"
  }
},
{
  "type": "node",
  "id": 7150119559,
  "lat": 9.5437603,
  "lon": 76.7174724,
  "tags": {
    "bus": "yes",
    "highway": "bus_stop",
    "public_transport": "platform"
  }
},
{
  "type": "node",
  "id": 7150124686,
  "lat": 9.5468069,
  "lon": 76.7165536,
  "tags": {
    "bus": "yes",
    "highway": "bus_stop",
    "public_transport": "platform",
    "shelter": "yes"
  }
},
{
  "type": "node",
  "id": 7196742135,
  "lat": 9.5699869,
  "lon": 76.6312775,
  "tags": {
    "bus": "yes",
    "highway": "bus_stop",
    "name": "vattamalappady",
    "public_transport": "platform"
  }
},
{
  "type": "node",
  "id": 7196773152,
  "lat": 9.5714512,
  "lon": 76.6242987,
  "tags": {
    "bus": "yes",
    "highway": "bus_stop",
    "name": "9th Mile",
    "public_transport": "platform",
    "shelter": "yes"
  }
},
{
  "type": "node",
  "id": 7196944662,
  "lat": 9.6228763,
  "lon": 76.6793643,
  "tags": {
    "bus": "yes",
    "highway": "bus_stop",
    "name": "mundankkunnu bus stop",
    "public_transport": "platform"
  }
},
{
  "type": "node",
  "id": 7203967353,
  "lat": 9.5932573,
  "lon": 76.5842065,
  "tags": {
    "bus": "yes",
    "highway": "bus_stop",
    "name": "perumanikulam bus stop",
    "public_transport": "platform"
  }
},
{
  "type": "node",
  "id": 7216876347,
  "lat": 9.7274102,
  "lon": 76.5748768,
  "tags": {
    "bus": "yes",
    "highway": "bus_stop",
    "name": "vayala bank junction",
    "public_transport": "platform"
  }
},
{
  "type": "node",
  "id": 7223178310,
  "lat": 9.6269024,
  "lon": 76.5719509,
  "tags": {
    "bus": "yes",
    "highway": "bus_stop",
    "name": "chamayamkara busstop",
    "public_transport": "platform"
  }
},
{
  "type": "node",
  "id": 7223188055,
  "lat": 9.6321716,
  "lon": 76.5648232,
  "tags": {
    "bus": "yes",
    "highway": "bus_stop",
    "name": "poovatummood busstop",
    "public_transport": "platform"
  }
},
{
  "type": "node",
  "id": 7304813808,
  "lat": 9.5899386,
  "lon": 76.6504601,
  "tags": {
    "bus": "yes",
    "highway": "bus_stop",
    "name": "kissan kavala Busstop",
    "public_transport": "platform"
  }
},
{
  "type": "node",
  "id": 7304813809,
  "lat": 9.5879842,
  "lon": 76.6574720,
  "tags": {
    "bus": "yes",
    "highway": "bus_stop",
    "name": "SN Puram Bus Stop",
    "public_transport": "platform"
  }
},
{
  "type": "node",
  "id": 7304813820,
  "lat": 9.5800499,
  "lon": 76.6598755,
  "tags": {
    "bus": "yes",
    "highway": "bus_stop",
    "name": "Vattukalam",
    "public_transport": "platform"
  }
},
{
  "type": "node",
  "id": 7305289604,
  "lat": 9.5694239,
  "lon": 76.7202078,
  "tags": {
    "bus": "yes",
    "highway": "bus_stop",
    "name": "18 mile",
    "public_transport": "platform"
  }
},
{
  "type": "node",
  "id": 7305515983,
  "lat": 9.5759102,
  "lon": 76.5949772,
  "tags": {
    "bus": "yes",
    "departures_board": "timetable",
    "highway": "bus_stop",
    "name": "Kochumattam(school Near)",
    "public_transport": "platform"
  }
},
{
  "type": "node",
  "id": 7305515984,
  "lat": 9.5654536,
  "lon": 76.5943732,
  "tags": {
    "bus": "yes",
    "departures_board": "timetable",
    "highway": "bus_stop",
    "name": "Payyappady",
    "name:ml": "പയ്യപ്പാടി",
    "public_transport": "platform"
  }
},
{
  "type": "node",
  "id": 7305516485,
  "lat": 9.5663275,
  "lon": 76.5879701,
  "tags": {
    "bus": "yes",
    "departures_board": "timetable",
    "highway": "bus_stop",
    "name": "Vellukutta",
    "public_transport": "platform"
  }
},
{
  "type": "node",
  "id": 7308850181,
  "lat": 9.5599332,
  "lon": 76.6240261,
  "tags": {
    "bus": "yes",
    "highway": "bus_stop",
    "name": "Manjadi Jn",
    "public_transport": "platform"
  }
},
{
  "type": "node",
  "id": 7310930077,
  "lat": 9.5887982,
  "lon": 76.6004151,
  "tags": {
    "bus": "yes",
    "highway": "bus_stop",
    "name": "Annadivayal",
    "public_transport": "platform"
  }
},
{
  "type": "node",
  "id": 7318711520,
  "lat": 9.8316229,
  "lon": 76.4689851,
  "tags": {
    "bus": "yes",
    "highway": "bus_stop",
    "name": "Newsprint Nagar Bus stop",
    "public_transport": "platform"
  }
},
{
  "type": "node",
  "id": 7318711521,
  "lat": 9.8271650,
  "lon": 76.4763829,
  "tags": {
    "bus": "yes",
    "highway": "bus_stop",
    "name": "Police Station",
    "public_transport": "platform"
  }
},
{
  "type": "node",
  "id": 7318711522,
  "lat": 9.8270281,
  "lon": 76.4783616,
  "tags": {
    "bus": "yes",
    "highway": "bus_stop",
    "name": "Karikode",
    "public_transport": "platform"
  }
},
{
  "type": "node",
  "id": 7319446353,
  "lat": 9.5604477,
  "lon": 76.6024020,
  "tags": {
    "bus": "yes",
    "highway": "bus_stop",
    "name": "Olassappady",
    "public_transport": "platform"
  }
},
{
  "type": "node",
  "id": 7320831706,
  "lat": 9.5580506,
  "lon": 76.6040433,
  "tags": {
    "bus": "yes",
    "highway": "bus_stop",
    "name": "Thakidi",
    "public_transport": "platform"
  }
},
{
  "type": "node",
  "id": 7320845799,
  "lat": 9.5579438,
  "lon": 76.6056499,
  "tags": {
    "bus": "yes",
    "highway": "bus_stop",
    "name": "Thakidi-Mundiyakkal",
    "public_transport": "platform"
  }
},
{
  "type": "node",
  "id": 7321265640,
  "lat": 9.5385791,
  "lon": 76.8858597,
  "tags": {
    "bus": "yes",
    "highway": "bus_stop",
    "name": "KSRTC Station Master Office",
    "public_transport": "platform"
  }
},
{
  "type": "node",
  "id": 7323314158,
  "lat": 9.5567583,
  "lon": 76.6082718,
  "tags": {
    "bus": "yes",
    "highway": "bus_stop",
    "public_transport": "platform"
  }
},
{
  "type": "node",
  "id": 7323320830,
  "lat": 9.5610779,
  "lon": 76.6121996,
  "tags": {
    "bus": "yes",
    "highway": "bus_stop",
    "name": "Mundiyakkal",
    "name:ml": "മുണ്ടിയാക്കൽ",
    "public_transport": "platform"
  }
},
{
  "type": "node",
  "id": 7323323438,
  "lat": 9.5496636,
  "lon": 76.6037922,
  "tags": {
    "bus": "yes",
    "highway": "bus_stop",
    "name": "Ashupathripadi Meenadom",
    "public_transport": "platform"
  }
},
{
  "type": "node",
  "id": 7324344015,
  "lat": 9.5596548,
  "lon": 76.5723450,
  "tags": {
    "bus": "yes",
    "highway": "bus_stop",
    "name": "Puthuppally Junction Bus Stop",
    "public_transport": "platform"
  }
},
{
  "type": "node",
  "id": 7324683672,
  "lat": 9.5669035,
  "lon": 76.5784716,
  "tags": {
    "bus": "yes",
    "highway": "bus_stop",
    "name": "Kanjirathumoodu Bus Stop",
    "public_transport": "platform"
  }
},
{
  "type": "node",
  "id": 7324713350,
  "lat": 9.5662256,
  "lon": 76.5968737,
  "tags": {
    "bus": "yes",
    "highway": "bus_stop",
    "public_transport": "platform"
  }
},
{
  "type": "node",
  "id": 7324719315,
  "lat": 9.5641832,
  "lon": 76.5983159,
  "tags": {
    "bus": "yes",
    "highway": "bus_stop",
    "public_transport": "platform"
  }
},
{
  "type": "node",
  "id": 7327887422,
  "lat": 9.5615194,
  "lon": 76.6007886,
  "tags": {
    "bus": "yes",
    "highway": "bus_stop",
    "public_transport": "platform"
  }
},
{
  "type": "node",
  "id": 7332579056,
  "lat": 9.6616163,
  "lon": 76.6110916,
  "tags": {
    "bus": "yes",
    "highway": "bus_stop",
    "name": "polakkapadi",
    "public_transport": "platform",
    "shelter": "yes"
  }
},
{
  "type": "node",
  "id": 7332633107,
  "lat": 9.6569590,
  "lon": 76.6128949,
  "tags": {
    "bus": "yes",
    "highway": "bus_stop",
    "name": "Kallitunada",
    "name:ml": "കല്ലിട്ട്‌നട",
    "public_transport": "platform",
    "shelter": "yes"
  }
},
{
  "type": "node",
  "id": 7332673299,
  "lat": 9.6439721,
  "lon": 76.5981591,
  "tags": {
    "bus": "yes",
    "highway": "bus_stop",
    "name": "pulichuvadkavala",
    "public_transport": "platform",
    "shelter": "no"
  }
},
{
  "type": "node",
  "id": 7332748891,
  "lat": 9.6702836,
  "lon": 76.5805663,
  "tags": {
    "bus": "yes",
    "highway": "bus_stop",
    "name": "vettymukal busstop",
    "public_transport": "platform",
    "shelter": "yes"
  }
},
{
  "type": "node",
  "id": 7332914918,
  "lat": 9.5671148,
  "lon": 76.6871174,
  "tags": {
    "bus": "yes",
    "highway": "bus_stop",
    "name": "nedumavu bus stop",
    "public_transport": "platform"
  }
},
{
  "type": "node",
  "id": 7334180395,
  "lat": 9.6120057,
  "lon": 76.5076055,
  "tags": {
    "bus": "yes",
    "highway": "bus_stop",
    "name": "Kudayampadi Bus stop",
    "public_transport": "platform"
  }
},
{
  "type": "node",
  "id": 7334218324,
  "lat": 9.6047540,
  "lon": 76.6814372,
  "tags": {
    "bus": "yes",
    "highway": "bus_stop",
    "public_transport": "platform"
  }
},
{
  "type": "node",
  "id": 7334290674,
  "lat": 9.5672665,
  "lon": 76.7147640,
  "tags": {
    "bus": "yes",
    "highway": "bus_stop",
    "name": "17th mile bus stop",
    "public_transport": "platform"
  }
},
{
  "type": "node",
  "id": 7334674607,
  "lat": 9.6359569,
  "lon": 76.5659039,
  "tags": {
    "bus": "yes",
    "highway": "bus_stop",
    "name": "pulimood jn busstop",
    "public_transport": "platform"
  }
},
{
  "type": "node",
  "id": 7334728790,
  "lat": 9.5838921,
  "lon": 76.5253899,
  "tags": {
    "bus": "yes",
    "highway": "bus_stop",
    "name": "Kerala Transport",
    "public_transport": "platform"
  }
},
{
  "type": "node",
  "id": 7334803704,
  "lat": 9.6317937,
  "lon": 76.5629375,
  "tags": {
    "bus": "yes",
    "highway": "bus_stop",
    "public_transport": "platform"
  }
},
{
  "type": "node",
  "id": 7335069729,
  "lat": 9.7594822,
  "lon": 76.5619281,
  "tags": {
    "bus": "yes",
    "highway": "bus_stop",
    "name": "Kuravilangad Bus Stand",
    "public_transport": "platform"
  }
},
{
  "type": "node",
  "id": 7339689568,
  "lat": 9.7491753,
  "lon": 76.5383796,
  "tags": {
    "bench": "yes",
    "bus": "yes",
    "description": "Bus Stop",
    "highway": "bus_stop",
    "name": "Mavinchuvad Bus Stop",
    "public_transport": "platform",
    "shelter": "yes"
  }
},
{
  "type": "node",
  "id": 7339689578,
  "lat": 9.7574073,
  "lon": 76.5485501,
  "tags": {
    "bus": "yes",
    "description": "Kaliyarthottam Bus Stand",
    "highway": "bus_stop",
    "name": "Kaliyarthottam Bus Stand",
    "public_transport": "platform"
  }
},
{
  "type": "node",
  "id": 7339727400,
  "lat": 9.5760722,
  "lon": 76.5970257,
  "tags": {
    "bus": "yes",
    "departures_board": "timetable",
    "highway": "bus_stop",
    "name": "Kochumattam",
    "network": "kochumattam to kottayam",
    "public_transport": "platform"
  }
},
{
  "type": "node",
  "id": 7339878598,
  "lat": 9.5156054,
  "lon": 76.6394224,
  "tags": {
    "bus": "yes",
    "departures_board": "timetable",
    "highway": "bus_stop",
    "name": "manturuthy bus stop",
    "network": "bus stop",
    "public_transport": "platform"
  }
},
{
  "type": "node",
  "id": 7346016580,
  "lat": 9.6711521,
  "lon": 76.6700583,
  "tags": {
    "bus": "yes",
    "highway": "bus_stop",
    "name": "Mevada Bus Stop",
    "public_transport": "platform"
  }
},
{
  "type": "node",
  "id": 7346025530,
  "lat": 9.6736665,
  "lon": 76.6683773,
  "tags": {
    "bus": "yes",
    "highway": "bus_stop",
    "name": "Kavumpady Bus Stop",
    "public_transport": "platform"
  }
},
{
  "type": "node",
  "id": 7346029774,
  "lat": 9.6661888,
  "lon": 76.6708154,
  "tags": {
    "bus": "yes",
    "highway": "bus_stop",
    "name": "Monipally bus stop",
    "public_transport": "platform"
  }
},
{
  "type": "node",
  "id": 7346035656,
  "lat": 9.6546043,
  "lon": 76.6642371,
  "tags": {
    "bus": "yes",
    "highway": "bus_stop",
    "name": "Kozhuvanal Bus Stop",
    "public_transport": "platform"
  }
},
{
  "type": "node",
  "id": 7346035657,
  "lat": 9.6530761,
  "lon": 76.6651395,
  "tags": {
    "bus": "yes",
    "highway": "bus_stop",
    "public_transport": "platform"
  }
},
{
  "type": "node",
  "id": 7346049065,
  "lat": 9.6706450,
  "lon": 76.6704137,
  "tags": {
    "bus": "yes",
    "highway": "bus_stop",
    "name": "Mevada Bus stop",
    "public_transport": "platform"
  }
},
{
  "type": "node",
  "id": 7346055360,
  "lat": 9.5666476,
  "lon": 76.7067222,
  "tags": {
    "bus": "yes",
    "highway": "bus_stop",
    "name": "Kodungoor",
    "public_transport": "platform",
    "shelter": "yes"
  }
},
{
  "type": "node",
  "id": 7346059920,
  "lat": 9.6546124,
  "lon": 76.6643780,
  "tags": {
    "bus": "yes",
    "highway": "bus_stop",
    "name": "Kozhuvanal Bus Stop",
    "public_transport": "platform"
  }
},
{
  "type": "node",
  "id": 7346065341,
  "lat": 9.6007717,
  "lon": 76.6841566,
  "tags": {
    "bus": "yes",
    "highway": "bus_stop",
    "public_transport": "platform"
  }
},
{
  "type": "node",
  "id": 7346071594,
  "lat": 9.6529693,
  "lon": 76.6650880,
  "tags": {
    "bus": "yes",
    "highway": "bus_stop",
    "public_transport": "platform"
  }
},
{
  "type": "node",
  "id": 7346071595,
  "lat": 9.6494880,
  "lon": 76.6670203,
  "tags": {
    "bus": "yes",
    "highway": "bus_stop",
    "public_transport": "platform"
  }
},
{
  "type": "node",
  "id": 7346071747,
  "lat": 9.6359284,
  "lon": 76.6733700,
  "tags": {
    "bus": "yes",
    "highway": "bus_stop",
    "name": "Mynkandam Bus Stop",
    "public_transport": "platform",
    "shelter": "no"
  }
},
{
  "type": "node",
  "id": 7346074267,
  "lat": 9.6361813,
  "lon": 76.6734398,
  "tags": {
    "bus": "yes",
    "highway": "bus_stop",
    "public_transport": "platform"
  }
},
{
  "type": "node",
  "id": 7346076854,
  "lat": 9.6494640,
  "lon": 76.6669580,
  "tags": {
    "bus": "yes",
    "highway": "bus_stop",
    "public_transport": "platform"
  }
},
{
  "type": "node",
  "id": 7346082798,
  "lat": 9.6261645,
  "lon": 76.6743890,
  "tags": {
    "bus": "yes",
    "highway": "bus_stop",
    "public_transport": "platform"
  }
},
{
  "type": "node",
  "id": 7346096821,
  "lat": 9.6262923,
  "lon": 76.6743669,
  "tags": {
    "bus": "yes",
    "highway": "bus_stop",
    "public_transport": "platform"
  }
},
{
  "type": "node",
  "id": 7346097690,
  "lat": 9.5665821,
  "lon": 76.7059152,
  "tags": {
    "bus": "yes",
    "highway": "bus_stop",
    "public_transport": "platform"
  }
},
{
  "type": "node",
  "id": 7346107730,
  "lat": 9.5664962,
  "lon": 76.7061763,
  "tags": {
    "bus": "yes",
    "highway": "bus_stop",
    "public_transport": "platform"
  }
},
{
  "type": "node",
  "id": 7346108210,
  "lat": 9.5667748,
  "lon": 76.7058251,
  "tags": {
    "bus": "yes",
    "highway": "bus_stop",
    "public_transport": "platform"
  }
},
{
  "type": "node",
  "id": 7346138142,
  "lat": 9.5597460,
  "lon": 76.7938480,
  "tags": {
    "bus": "yes",
    "highway": "bus_stop",
    "public_transport": "platform"
  }
},
{
  "type": "node",
  "id": 7346152136,
  "lat": 9.5309584,
  "lon": 76.8224935,
  "tags": {
    "bus": "yes",
    "highway": "bus_stop",
    "public_transport": "platform"
  }
},
{
  "type": "node",
  "id": 7346157277,
  "lat": 9.5607132,
  "lon": 76.8113683,
  "tags": {
    "bus": "yes",
    "highway": "bus_stop",
    "public_transport": "platform"
  }
},
{
  "type": "node",
  "id": 7346180100,
  "lat": 9.5607013,
  "lon": 76.8112872,
  "tags": {
    "bus": "yes",
    "highway": "bus_stop",
    "public_transport": "platform"
  }
},
{
  "type": "node",
  "id": 7346188155,
  "lat": 9.5584070,
  "lon": 76.8130712,
  "tags": {
    "bus": "yes",
    "highway": "bus_stop",
    "public_transport": "platform"
  }
},
{
  "type": "node",
  "id": 7346193285,
  "lat": 9.5584836,
  "lon": 76.8130995,
  "tags": {
    "bus": "yes",
    "highway": "bus_stop",
    "public_transport": "platform"
  }
},
{
  "type": "node",
  "id": 7346196421,
  "lat": 9.5312948,
  "lon": 76.8225272,
  "tags": {
    "bus": "yes",
    "highway": "bus_stop",
    "public_transport": "platform"
  }
},
{
  "type": "node",
  "id": 7346198088,
  "lat": 9.5285118,
  "lon": 76.8236026,
  "tags": {
    "bench": "no",
    "bin": "no",
    "bus": "yes",
    "highway": "bus_stop",
    "name": "amal jyothi bus stop",
    "public_transport": "platform",
    "source": "local knowledge"
  }
},
{
  "type": "node",
  "id": 7346199369,
  "lat": 9.5247934,
  "lon": 76.8277665,
  "tags": {
    "bus": "yes",
    "highway": "bus_stop",
    "name": "Koovappally Bus Stop",
    "public_transport": "platform"
  }
},
{
  "type": "node",
  "id": 7350045546,
  "lat": 9.6867735,
  "lon": 76.6578925,
  "tags": {
    "bus": "yes",
    "highway": "bus_stop",
    "public_transport": "platform"
  }
},
{
  "type": "node",
  "id": 7350061457,
  "lat": 9.7043189,
  "lon": 76.6627335,
  "tags": {
    "bus": "yes",
    "highway": "bus_stop",
    "public_transport": "platform"
  }
},
{
  "type": "node",
  "id": 7350071618,
  "lat": 9.7097329,
  "lon": 76.6784404,
  "tags": {
    "bus": "yes",
    "highway": "bus_stop",
    "public_transport": "platform"
  }
},
{
  "type": "node",
  "id": 7350072519,
  "lat": 9.6842677,
  "lon": 76.6600377,
  "tags": {
    "bus": "yes",
    "highway": "bus_stop",
    "public_transport": "platform"
  }
},
{
  "type": "node",
  "id": 7350072535,
  "lat": 9.6982379,
  "lon": 76.6570717,
  "tags": {
    "bus": "yes",
    "highway": "bus_stop",
    "public_transport": "platform"
  }
},
{
  "type": "node",
  "id": 7350073560,
  "lat": 9.6983070,
  "lon": 76.6568953,
  "tags": {
    "bus": "yes",
    "highway": "bus_stop",
    "public_transport": "platform"
  }
},
{
  "type": "node",
  "id": 7350073832,
  "lat": 9.6843802,
  "lon": 76.6600580,
  "tags": {
    "bus": "yes",
    "highway": "bus_stop",
    "public_transport": "platform"
  }
},
{
  "type": "node",
  "id": 7350074082,
  "lat": 9.7005817,
  "lon": 76.6550153,
  "tags": {
    "bus": "yes",
    "highway": "bus_stop",
    "public_transport": "platform"
  }
},
{
  "type": "node",
  "id": 7350074184,
  "lat": 9.7111004,
  "lon": 76.6816827,
  "tags": {
    "bus": "yes",
    "highway": "bus_stop",
    "public_transport": "platform"
  }
},
{
  "type": "node",
  "id": 7350074610,
  "lat": 9.7109476,
  "lon": 76.6807747,
  "tags": {
    "bench": "yes",
    "bus": "yes",
    "highway": "bus_stop",
    "public_transport": "platform",
    "shelter": "yes"
  }
},
{
  "type": "node",
  "id": 7350081308,
  "lat": 9.6868670,
  "lon": 76.6579205,
  "tags": {
    "bus": "yes",
    "highway": "bus_stop",
    "public_transport": "platform"
  }
},
{
  "type": "node",
  "id": 7350081586,
  "lat": 9.6918520,
  "lon": 76.6565538,
  "tags": {
    "bus": "yes",
    "highway": "bus_stop",
    "public_transport": "platform"
  }
},
{
  "type": "node",
  "id": 7350081878,
  "lat": 9.6923238,
  "lon": 76.6563404,
  "tags": {
    "bus": "yes",
    "highway": "bus_stop",
    "public_transport": "platform"
  }
},
{
  "type": "node",
  "id": 7350082357,
  "lat": 9.7023895,
  "lon": 76.6663737,
  "tags": {
    "bus": "yes",
    "highway": "bus_stop",
    "public_transport": "platform"
  }
},
{
  "type": "node",
  "id": 7350084118,
  "lat": 9.7044237,
  "lon": 76.6626368,
  "tags": {
    "bus": "yes",
    "highway": "bus_stop",
    "public_transport": "platform",
    "shelter": "no"
  }
},
{
  "type": "node",
  "id": 7350084328,
  "lat": 9.7085229,
  "lon": 76.6729164,
  "tags": {
    "bus": "yes",
    "highway": "bus_stop",
    "public_transport": "platform",
    "shelter": "yes"
  }
},
{
  "type": "node",
  "id": 7350085439,
  "lat": 9.7010867,
  "lon": 76.6552932,
  "tags": {
    "bus": "yes",
    "highway": "bus_stop",
    "public_transport": "platform"
  }
},
{
  "type": "node",
  "id": 7350085611,
  "lat": 9.7005246,
  "lon": 76.6547736,
  "tags": {
    "bus": "yes",
    "highway": "bus_stop",
    "public_transport": "platform",
    "shelter": "yes"
  }
},
{
  "type": "node",
  "id": 7350086629,
  "lat": 9.7131960,
  "lon": 76.6849662,
  "tags": {
    "bench": "no",
    "bin": "no",
    "bus": "yes",
    "highway": "bus_stop",
    "public_transport": "platform",
    "shelter": "no"
  }
},
{
  "type": "node",
  "id": 7350088089,
  "lat": 9.7005412,
  "lon": 76.6551989,
  "tags": {
    "bus": "yes",
    "highway": "bus_stop",
    "public_transport": "platform"
  }
},
{
  "type": "node",
  "id": 7350097409,
  "lat": 9.7097901,
  "lon": 76.6782423,
  "tags": {
    "bus": "yes",
    "highway": "bus_stop",
    "public_transport": "platform"
  }
},
{
  "type": "node",
  "id": 7350100268,
  "lat": 9.7114381,
  "lon": 76.6814870,
  "tags": {
    "bench": "no",
    "bin": "no",
    "bus": "yes",
    "highway": "bus_stop",
    "public_transport": "platform",
    "shelter": "no"
  }
},
{
  "type": "node",
  "id": 7350189348,
  "lat": 9.6759119,
  "lon": 76.6119584,
  "tags": {
    "bus": "yes",
    "highway": "bus_stop",
    "public_transport": "platform"
  }
},
{
  "type": "node",
  "id": 7362682170,
  "lat": 9.5935902,
  "lon": 76.5217498,
  "tags": {
    "bus": "yes",
    "highway": "bus_stop",
    "public_transport": "platform"
  }
},
{
  "type": "node",
  "id": 7384968024,
  "lat": 9.6558596,
  "lon": 76.7334002,
  "tags": {
    "bus": "yes",
    "highway": "bus_stop",
    "public_transport": "platform"
  }
},
{
  "type": "node",
  "id": 7384979769,
  "lat": 9.6564499,
  "lon": 76.7309505,
  "tags": {
    "bus": "yes",
    "highway": "bus_stop",
    "public_transport": "platform"
  }
},
{
  "type": "node",
  "id": 7384985567,
  "lat": 9.6587008,
  "lon": 76.7206484,
  "tags": {
    "bus": "yes",
    "highway": "bus_stop",
    "public_transport": "platform"
  }
},
{
  "type": "node",
  "id": 7384997739,
  "lat": 9.6559120,
  "lon": 76.7238294,
  "tags": {
    "bus": "yes",
    "highway": "bus_stop",
    "public_transport": "platform"
  }
},
{
  "type": "node",
  "id": 7385007178,
  "lat": 9.6612758,
  "lon": 76.7297321,
  "tags": {
    "bus": "yes",
    "highway": "bus_stop",
    "public_transport": "platform"
  }
},
{
  "type": "node",
  "id": 7385010329,
  "lat": 9.6569711,
  "lon": 76.7283140,
  "tags": {
    "bus": "yes",
    "highway": "bus_stop",
    "public_transport": "platform"
  }
},
{
  "type": "node",
  "id": 7385017242,
  "lat": 9.6547846,
  "lon": 76.7233183,
  "tags": {
    "bus": "yes",
    "highway": "bus_stop",
    "public_transport": "platform"
  }
},
{
  "type": "node",
  "id": 7385023135,
  "lat": 9.6639948,
  "lon": 76.7322001,
  "tags": {
    "bus": "yes",
    "highway": "bus_stop",
    "public_transport": "platform"
  }
},
{
  "type": "node",
  "id": 7402678490,
  "lat": 9.5747201,
  "lon": 76.6198039,
  "tags": {
    "bus": "yes",
    "highway": "bus_stop",
    "name": "RIT junction",
    "public_transport": "platform"
  }
},
{
  "type": "node",
  "id": 7444683598,
  "lat": 9.5597294,
  "lon": 76.6815985,
  "tags": {
    "bus": "yes",
    "highway": "bus_stop",
    "name": "Pulickalkavala;14th Mile",
    "public_transport": "platform"
  }
},
{
  "type": "node",
  "id": 7448464740,
  "lat": 9.7204242,
  "lon": 76.7777503,
  "tags": {
    "bus": "yes",
    "highway": "bus_stop",
    "public_transport": "platform"
  }
},
{
  "type": "node",
  "id": 7455721123,
  "lat": 9.7484807,
  "lon": 76.7849360,
  "tags": {
    "bus": "yes",
    "departures_board": "yes",
    "highway": "bus_stop",
    "public_transport": "platform",
    "shelter": "yes",
    "shop": "greengrocer"
  }
},
{
  "type": "node",
  "id": 7456398840,
  "lat": 9.4498342,
  "lon": 76.5379024,
  "tags": {
    "bus": "yes",
    "highway": "bus_stop",
    "name": "SB college",
    "public_transport": "platform"
  }
},
{
  "type": "node",
  "id": 7458671151,
  "lat": 9.4743030,
  "lon": 76.5883404,
  "tags": {
    "bus": "yes",
    "highway": "bus_stop",
    "name": "Keli junction bus stop",
    "public_transport": "platform"
  }
},
{
  "type": "node",
  "id": 7459103665,
  "lat": 9.4521940,
  "lon": 76.5467315,
  "tags": {
    "bus": "yes",
    "highway": "bus_stop",
    "name": "Assumption Girls high school bus stop",
    "operator:type": "private",
    "public_transport": "platform",
    "shelter": "no"
  }
},
{
  "type": "node",
  "id": 7459103666,
  "lat": 9.4555124,
  "lon": 76.5507628,
  "tags": {
    "bus": "yes",
    "highway": "bus_stop",
    "name": "Parel Palai Bus Stop",
    "public_transport": "platform",
    "shelter": "no"
  }
},
{
  "type": "node",
  "id": 7459103667,
  "lat": 9.4596457,
  "lon": 76.5547640,
  "tags": {
    "bus": "yes",
    "departures_board": "yes",
    "highway": "bus_stop",
    "name": "Kurishummoodu (to East)",
    "public_transport": "platform"
  }
},
{
  "type": "node",
  "id": 7459103668,
  "lat": 9.4593547,
  "lon": 76.5547560,
  "tags": {
    "bus": "yes",
    "highway": "bus_stop",
    "name": "Kurishummoodu (to West)",
    "public_transport": "platform"
  }
},
{
  "type": "node",
  "id": 7459520556,
  "lat": 9.4544981,
  "lon": 76.5360154,
  "tags": {
    "bus": "yes",
    "highway": "bus_stop",
    "name": "Vezhacatt temple",
    "public_transport": "platform",
    "shelter": "no"
  }
},
{
  "type": "node",
  "id": 7459564545,
  "lat": 9.6214458,
  "lon": 76.7074344,
  "tags": {
    "bus": "yes",
    "departures_board": "no",
    "highway": "bus_stop",
    "name": "Areekal Bus stop",
    "public_transport": "platform",
    "shelter": "no"
  }
},
{
  "type": "node",
  "id": 7460105903,
  "lat": 9.4574962,
  "lon": 76.5334193,
  "tags": {
    "bus": "yes",
    "highway": "bus_stop",
    "name": "Mathumoola",
    "public_transport": "platform"
  }
},
{
  "type": "node",
  "id": 7463273316,
  "lat": 9.4449378,
  "lon": 76.5418238,
  "tags": {
    "bus": "yes",
    "highway": "bus_stop",
    "public_transport": "platform"
  }
},
{
  "type": "node",
  "id": 7463304166,
  "lat": 9.6331347,
  "lon": 76.6804919,
  "tags": {
    "bus": "yes",
    "departures_board": "no",
    "highway": "bus_stop",
    "name": "Parasherry Bus Stop",
    "public_transport": "platform"
  }
},
{
  "type": "node",
  "id": 7463304167,
  "lat": 9.6300077,
  "lon": 76.6857083,
  "tags": {
    "bus": "yes",
    "highway": "bus_stop",
    "public_transport": "platform"
  }
},
{
  "type": "node",
  "id": 7463304168,
  "lat": 9.6416128,
  "lon": 76.6889679,
  "tags": {
    "bus": "yes",
    "highway": "bus_stop",
    "name": "Alackal Bus stop",
    "network": "Pala- Kanjiramattom",
    "public_transport": "platform"
  }
},
{
  "type": "node",
  "id": 7463682882,
  "lat": 9.7355479,
  "lon": 76.7819123,
  "tags": {
    "bus": "yes",
    "highway": "bus_stop",
    "name": "Kottakkallu Bus Stop",
    "public_transport": "platform"
  }
},
{
  "type": "node",
  "id": 7463683623,
  "lat": 9.7451419,
  "lon": 76.7834037,
  "tags": {
    "bus": "yes",
    "highway": "bus_stop",
    "public_transport": "platform"
  }
},
{
  "type": "node",
  "id": 7463764763,
  "lat": 9.4383133,
  "lon": 76.5678625,
  "tags": {
    "bus": "yes",
    "highway": "bus_stop",
    "name": "kunnumpuram",
    "public_transport": "platform"
  }
},
{
  "type": "node",
  "id": 7463915573,
  "lat": 9.5072452,
  "lon": 76.7268880,
  "tags": {
    "bus": "yes",
    "highway": "bus_stop",
    "public_transport": "platform"
  }
},
{
  "type": "node",
  "id": 7463915955,
  "lat": 9.5063475,
  "lon": 76.7313291,
  "tags": {
    "bus": "yes",
    "highway": "bus_stop",
    "public_transport": "platform"
  }
},
{
  "type": "node",
  "id": 7464309401,
  "lat": 9.4997483,
  "lon": 76.7031417,
  "tags": {
    "bus": "yes",
    "highway": "bus_stop",
    "name": "edayapara",
    "public_transport": "platform"
  }
},
{
  "type": "node",
  "id": 7465777924,
  "lat": 9.5135149,
  "lon": 76.7098624,
  "tags": {
    "bus": "yes",
    "highway": "bus_stop",
    "name": "Edayarikkapuzha",
    "name:ml": "ഇടയരിക്കപ്പുഴ",
    "public_transport": "platform"
  }
},
{
  "type": "node",
  "id": 7466110820,
  "lat": 9.5088396,
  "lon": 76.6949011,
  "tags": {
    "bus": "yes",
    "highway": "bus_stop",
    "name": "pathanadu",
    "public_transport": "platform"
  }
},
{
  "type": "node",
  "id": 7466526528,
  "lat": 9.4823647,
  "lon": 76.5477768,
  "tags": {
    "bus": "yes",
    "highway": "bus_stop",
    "name": "Kuthirapady Bus Stop",
    "public_transport": "platform"
  }
},
{
  "type": "node",
  "id": 7467149070,
  "lat": 9.5554793,
  "lon": 76.7910493,
  "tags": {
    "bus": "yes",
    "highway": "bus_stop",
    "public_transport": "platform"
  }
},
{
  "type": "node",
  "id": 7467171185,
  "lat": 9.5551074,
  "lon": 76.7903208,
  "tags": {
    "bus": "yes",
    "highway": "bus_stop",
    "public_transport": "platform"
  }
},
{
  "type": "node",
  "id": 7467171187,
  "lat": 9.5552993,
  "lon": 76.7905232,
  "tags": {
    "bus": "yes",
    "highway": "bus_stop",
    "public_transport": "platform"
  }
},
{
  "type": "node",
  "id": 7467171188,
  "lat": 9.5600208,
  "lon": 76.7931733,
  "tags": {
    "bus": "yes",
    "highway": "bus_stop",
    "public_transport": "platform"
  }
},
{
  "type": "node",
  "id": 7467642696,
  "lat": 9.7974891,
  "lon": 76.5308474,
  "tags": {
    "bus": "yes",
    "highway": "bus_stop",
    "public_transport": "platform"
  }
},
{
  "type": "node",
  "id": 7467735760,
  "lat": 9.7851452,
  "lon": 76.5171659,
  "tags": {
    "bus": "yes",
    "highway": "bus_stop",
    "name": "Thuruthipalli bus stop",
    "public_transport": "platform"
  }
},
{
  "type": "node",
  "id": 7467853523,
  "lat": 9.5639284,
  "lon": 76.7672388,
  "tags": {
    "bus": "yes",
    "highway": "bus_stop",
    "public_transport": "platform"
  }
},
{
  "type": "node",
  "id": 7467853532,
  "lat": 9.5635859,
  "lon": 76.7674037,
  "tags": {
    "bus": "yes",
    "highway": "bus_stop",
    "name": "court",
    "public_transport": "platform"
  }
},
{
  "type": "node",
  "id": 7469435998,
  "lat": 9.6842975,
  "lon": 76.8953089,
  "tags": {
    "bus": "yes",
    "highway": "bus_stop",
    "public_transport": "platform"
  }
},
{
  "type": "node",
  "id": 7470251475,
  "lat": 9.4861395,
  "lon": 76.5468368,
  "tags": {
    "bus": "yes",
    "highway": "bus_stop",
    "name": "Chalachira",
    "public_transport": "platform"
  }
},
{
  "type": "node",
  "id": 7470259426,
  "lat": 9.4758228,
  "lon": 76.5512154,
  "tags": {
    "bus": "yes",
    "highway": "bus_stop",
    "name": "Maamukkapady",
    "public_transport": "platform"
  }
},
{
  "type": "node",
  "id": 7470259427,
  "lat": 9.4790272,
  "lon": 76.5492757,
  "tags": {
    "bus": "yes",
    "highway": "bus_stop",
    "name": "Enachira Jn.",
    "public_transport": "platform"
  }
},
{
  "type": "node",
  "id": 7470259486,
  "lat": 9.4729226,
  "lon": 76.5524370,
  "tags": {
    "bus": "yes",
    "highway": "bus_stop",
    "name": "Koonamthanam",
    "public_transport": "platform"
  }
},
{
  "type": "node",
  "id": 7470259487,
  "lat": 9.4847115,
  "lon": 76.5474113,
  "tags": {
    "bus": "yes",
    "highway": "bus_stop",
    "name": "Chakkarimukku",
    "public_transport": "platform"
  }
},
{
  "type": "node",
  "id": 7470259488,
  "lat": 9.4885935,
  "lon": 76.5472188,
  "tags": {
    "bus": "yes",
    "highway": "bus_stop",
    "name": "Pulimoodu Jn.",
    "public_transport": "platform"
  }
},
{
  "type": "node",
  "id": 7470259490,
  "lat": 9.4903703,
  "lon": 76.5479492,
  "tags": {
    "bus": "yes",
    "highway": "bus_stop",
    "name": "Ponpuzha",
    "public_transport": "platform"
  }
},
{
  "type": "node",
  "id": 7470329568,
  "lat": 9.5639928,
  "lon": 76.5250995,
  "tags": {
    "bus": "yes",
    "highway": "bus_stop",
    "public_transport": "platform"
  }
},
{
  "type": "node",
  "id": 7470358924,
  "lat": 9.7868279,
  "lon": 76.4400971,
  "tags": {
    "bus": "yes",
    "highway": "bus_stop",
    "name": "Carvy Thalayolaparambu",
    "public_transport": "platform"
  }
},
{
  "type": "node",
  "id": 7470941869,
  "lat": 9.4657427,
  "lon": 76.5513671,
  "tags": {
    "bus": "yes",
    "highway": "bus_stop",
    "name": "Vakkachampady Bus Stop",
    "public_transport": "platform"
  }
},
{
  "type": "node",
  "id": 7470962559,
  "lat": 9.4627354,
  "lon": 76.5519371,
  "tags": {
    "bus": "yes",
    "highway": "bus_stop",
    "name": "chethipuzha",
    "public_transport": "platform",
    "shelter": "yes"
  }
},
{
  "type": "node",
  "id": 7471038514,
  "lat": 9.4600163,
  "lon": 76.5520580,
  "tags": {
    "bus": "yes",
    "highway": "bus_stop",
    "name": "Munthirikavala",
    "public_transport": "platform"
  }
},
{
  "type": "node",
  "id": 7471038532,
  "lat": 9.4595262,
  "lon": 76.5541620,
  "tags": {
    "bus": "yes",
    "highway": "bus_stop",
    "name": "Kurishmoodu (to North)",
    "public_transport": "platform"
  }
},
{
  "type": "node",
  "id": 7471038534,
  "lat": 9.4620907,
  "lon": 76.5599573,
  "tags": {
    "bus": "yes",
    "highway": "bus_stop",
    "name": "Valiyakulam",
    "public_transport": "platform",
    "shelter": "yes"
  }
},
{
  "type": "node",
  "id": 7471038535,
  "lat": 9.4638016,
  "lon": 76.5650181,
  "tags": {
    "bus": "yes",
    "highway": "bus_stop",
    "name": "Madukkumoodu",
    "public_transport": "platform"
  }
},
{
  "type": "node",
  "id": 7471038536,
  "lat": 9.4635907,
  "lon": 76.5648720,
  "tags": {
    "bus": "yes",
    "highway": "bus_stop",
    "name": "Madukkumoodu",
    "public_transport": "platform",
    "shelter": "yes"
  }
},
{
  "type": "node",
  "id": 7471666066,
  "lat": 9.4995562,
  "lon": 76.5524542,
  "tags": {
    "bus": "yes",
    "highway": "bus_stop",
    "name": "Malikakkadavu Jn.",
    "public_transport": "platform"
  }
},
{
  "type": "node",
  "id": 7473076751,
  "lat": 9.5469751,
  "lon": 76.5226501,
  "tags": {
    "bus": "yes",
    "highway": "bus_stop",
    "name": "pakkil palam bus stop",
    "public_transport": "platform"
  }
},
{
  "type": "node",
  "id": 7473089344,
  "lat": 9.5587899,
  "lon": 76.5290525,
  "tags": {
    "bus": "yes",
    "highway": "bus_stop",
    "name": "divan puram bus stop",
    "public_transport": "platform"
  }
},
{
  "type": "node",
  "id": 7474245254,
  "lat": 9.4609627,
  "lon": 76.7999335,
  "tags": {
    "bus": "yes",
    "highway": "bus_stop",
    "public_transport": "platform"
  }
},
{
  "type": "node",
  "id": 7475225301,
  "lat": 9.7026889,
  "lon": 76.5560679,
  "tags": {
    "bus": "yes",
    "highway": "bus_stop",
    "name": "rationkada padi",
    "public_transport": "platform"
  }
},
{
  "type": "node",
  "id": 7475234430,
  "lat": 9.7154012,
  "lon": 76.5590468,
  "tags": {
    "bus": "yes",
    "highway": "bus_stop",
    "name": "vempally nadukavala",
    "public_transport": "platform"
  }
},
{
  "type": "node",
  "id": 7475250494,
  "lat": 9.7092398,
  "lon": 76.5613067,
  "tags": {
    "bus": "yes",
    "highway": "bus_stop",
    "name": "bustop",
    "public_transport": "platform"
  }
},
{
  "type": "node",
  "id": 7475255646,
  "lat": 9.7122485,
  "lon": 76.5579592,
  "tags": {
    "bus": "yes",
    "highway": "bus_stop",
    "name": "vempally south",
    "public_transport": "platform"
  }
},
{
  "type": "node",
  "id": 7475267760,
  "lat": 9.7065340,
  "lon": 76.5683866,
  "tags": {
    "bus": "yes",
    "highway": "bus_stop",
    "name": "millumpady",
    "public_transport": "platform"
  }
},
{
  "type": "node",
  "id": 7475268975,
  "lat": 9.7239798,
  "lon": 76.5609466,
  "tags": {
    "bus": "yes",
    "highway": "bus_stop",
    "name": "kalikavu church bus stop",
    "public_transport": "platform"
  }
},
{
  "type": "node",
  "id": 7475269490,
  "lat": 9.7086100,
  "lon": 76.5636533,
  "tags": {
    "bus": "yes",
    "highway": "bus_stop",
    "name": "bus stop",
    "public_transport": "platform"
  }
},
{
  "type": "node",
  "id": 7475269919,
  "lat": 9.7070336,
  "lon": 76.5658704,
  "tags": {
    "bus": "yes",
    "highway": "bus_stop",
    "name": "Shankarmukhu",
    "public_transport": "platform"
  }
},
{
  "type": "node",
  "id": 7475288298,
  "lat": 9.7273360,
  "lon": 76.5614849,
  "tags": {
    "bus": "yes",
    "highway": "bus_stop",
    "name": "kalikavu temple bus stop",
    "public_transport": "platform"
  }
},
{
  "type": "node",
  "id": 7475339575,
  "lat": 9.6843713,
  "lon": 76.5571475,
  "tags": {
    "bus": "yes",
    "highway": "bus_stop",
    "name": "Pattithanam junction",
    "public_transport": "platform"
  }
},
{
  "type": "node",
  "id": 7475371299,
  "lat": 9.6808277,
  "lon": 76.5575751,
  "tags": {
    "bus": "yes",
    "highway": "bus_stop",
    "name": "Thavalakuzhi",
    "public_transport": "platform"
  }
},
{
  "type": "node",
  "id": 7475472916,
  "lat": 9.5136141,
  "lon": 76.8103555,
  "tags": {
    "bus": "yes",
    "highway": "bus_stop",
    "name": "Vizhikkathodu Bus Stop",
    "public_transport": "platform"
  }
},
{
  "type": "node",
  "id": 7478106271,
  "lat": 9.5556191,
  "lon": 76.5135522,
  "tags": {
    "bus": "yes",
    "highway": "bus_stop",
    "name": "nattakom college stop",
    "public_transport": "platform"
  }
},
{
  "type": "node",
  "id": 7478124933,
  "lat": 9.5666609,
  "lon": 76.5198069,
  "tags": {
    "bus": "yes",
    "highway": "bus_stop",
    "public_transport": "platform"
  }
},
{
  "type": "node",
  "id": 7478124934,
  "lat": 9.5665346,
  "lon": 76.5194146,
  "tags": {
    "bus": "yes",
    "highway": "bus_stop",
    "name": "Manipuzha",
    "public_transport": "platform"
  }
},
{
  "type": "node",
  "id": 7478124935,
  "lat": 9.5671700,
  "lon": 76.5194735,
  "tags": {
    "bus": "yes",
    "highway": "bus_stop",
    "public_transport": "platform"
  }
},
{
  "type": "node",
  "id": 7479600691,
  "lat": 9.5761606,
  "lon": 76.7873061,
  "tags": {
    "bus": "yes",
    "highway": "bus_stop",
    "public_transport": "platform"
  }
},
{
  "type": "node",
  "id": 7479600696,
  "lat": 9.5758546,
  "lon": 76.7872896,
  "tags": {
    "bus": "yes",
    "highway": "bus_stop",
    "public_transport": "platform"
  }
},
{
  "type": "node",
  "id": 7479627089,
  "lat": 9.6035051,
  "lon": 76.6956523,
  "tags": {
    "bus": "yes",
    "highway": "bus_stop",
    "name": "bus stop",
    "public_transport": "platform"
  }
},
{
  "type": "node",
  "id": 7481397825,
  "lat": 9.5890679,
  "lon": 76.5826914,
  "tags": {
    "bus": "yes",
    "highway": "bus_stop",
    "name": "Manarcad bus station",
    "name:ml": "മണർകാട്",
    "public_transport": "platform",
    "shelter": "yes"
  }
},
{
  "type": "node",
  "id": 7482024408,
  "lat": 9.7000101,
  "lon": 76.7586790,
  "tags": {
    "bench": "yes",
    "bin": "no",
    "bus": "yes",
    "departures_board": "no",
    "highway": "bus_stop",
    "lit": "no",
    "name": "Panackapalam Bus Stop",
    "public_transport": "platform",
    "shelter": "yes"
  }
},
{
  "type": "node",
  "id": 7484948206,
  "lat": 9.6032522,
  "lon": 76.6992472,
  "tags": {
    "bus": "yes",
    "highway": "bus_stop",
    "name": "Puthenveetil padi",
    "public_transport": "platform"
  }
},
{
  "type": "node",
  "id": 7485044177,
  "lat": 9.6933504,
  "lon": 76.5599505,
  "tags": {
    "bus": "yes",
    "highway": "bus_stop",
    "name": "chumaduthangi",
    "public_transport": "platform"
  }
},
{
  "type": "node",
  "id": 7485051574,
  "lat": 9.6970795,
  "lon": 76.5586501,
  "tags": {
    "bus": "yes",
    "highway": "bus_stop",
    "name": "retnagiri church bus stop",
    "public_transport": "platform"
  }
},
{
  "type": "node",
  "id": 7485185706,
  "lat": 9.6997158,
  "lon": 76.7589251,
  "tags": {
    "bench": "yes",
    "bin": "no",
    "bus": "yes",
    "highway": "bus_stop",
    "lit": "no",
    "name": "Panckapalam Bus stop",
    "public_transport": "platform",
    "shelter": "yes"
  }
},
{
  "type": "node",
  "id": 7486867348,
  "lat": 9.6289694,
  "lon": 76.7758807,
  "tags": {
    "bus": "yes",
    "highway": "bus_stop",
    "public_transport": "platform"
  }
},
{
  "type": "node",
  "id": 7488138652,
  "lat": 9.6186327,
  "lon": 76.6690152,
  "tags": {
    "bus": "yes",
    "highway": "bus_stop",
    "name": "Moozhoor",
    "public_transport": "platform"
  }
},
{
  "type": "node",
  "id": 7488163592,
  "lat": 9.6202854,
  "lon": 76.6637354,
  "tags": {
    "bus": "yes",
    "highway": "bus_stop",
    "name": "Moozhoor Church",
    "public_transport": "platform"
  }
},
{
  "type": "node",
  "id": 7488182192,
  "lat": 9.6169811,
  "lon": 76.7770779,
  "tags": {
    "bus": "yes",
    "highway": "bus_stop",
    "public_transport": "platform"
  }
},
{
  "type": "node",
  "id": 7488182193,
  "lat": 9.6168914,
  "lon": 76.7770248,
  "tags": {
    "bus": "yes",
    "highway": "bus_stop",
    "public_transport": "platform"
  }
},
{
  "type": "node",
  "id": 7488357196,
  "lat": 9.5536558,
  "lon": 76.7366064,
  "tags": {
    "bus": "yes",
    "highway": "bus_stop",
    "public_transport": "platform"
  }
},
{
  "type": "node",
  "id": 7488368777,
  "lat": 9.5512545,
  "lon": 76.6427701,
  "tags": {
    "bus": "yes",
    "highway": "bus_stop",
    "name": "Elakkodinji",
    "name:ml": "ഇലക്കോടിഞ്ഞി",
    "public_transport": "platform"
  }
},
{
  "type": "node",
  "id": 7488372912,
  "lat": 9.5585984,
  "lon": 76.6451578,
  "tags": {
    "bus": "yes",
    "highway": "bus_stop",
    "name": "Pothenpuram",
    "name:ml": "പോത്തൻപുരം",
    "public_transport": "platform"
  }
},
{
  "type": "node",
  "id": 7488405967,
  "lat": 9.5343946,
  "lon": 76.6461336,
  "tags": {
    "bus": "yes",
    "highway": "bus_stop",
    "name": "Illimattom",
    "public_transport": "platform"
  }
},
{
  "type": "node",
  "id": 7488406870,
  "lat": 9.5444091,
  "lon": 76.6450178,
  "tags": {
    "bus": "yes",
    "highway": "bus_stop",
    "name": "Bank junction",
    "public_transport": "platform"
  }
},
{
  "type": "node",
  "id": 7488420272,
  "lat": 9.5550580,
  "lon": 76.6451090,
  "tags": {
    "bus": "yes",
    "highway": "bus_stop",
    "name": "college junction",
    "public_transport": "platform"
  }
},
{
  "type": "node",
  "id": 7488429614,
  "lat": 9.5465463,
  "lon": 76.6450071,
  "tags": {
    "bus": "yes",
    "highway": "bus_stop",
    "name": "Temple junction",
    "public_transport": "platform"
  }
},
{
  "type": "node",
  "id": 7488436869,
  "lat": 9.5407906,
  "lon": 76.6447818,
  "tags": {
    "bus": "yes",
    "highway": "bus_stop",
    "name": "Kuttickal Junction",
    "public_transport": "platform"
  }
},
{
  "type": "node",
  "id": 7488515681,
  "lat": 9.6015499,
  "lon": 76.6930783,
  "tags": {
    "bus": "yes",
    "highway": "bus_stop",
    "public_transport": "platform"
  }
},
{
  "type": "node",
  "id": 7488667054,
  "lat": 9.6019361,
  "lon": 76.7200180,
  "tags": {
    "bus": "yes",
    "highway": "bus_stop",
    "name": "Pravinkkodu",
    "public_transport": "platform"
  }
},
{
  "type": "node",
  "id": 7488802181,
  "lat": 9.5479927,
  "lon": 76.8169305,
  "tags": {
    "bus": "yes",
    "highway": "bus_stop",
    "name": "Onnam Mile",
    "public_transport": "platform"
  }
},
{
  "type": "node",
  "id": 7488848092,
  "lat": 9.5391309,
  "lon": 76.8194361,
  "tags": {
    "bus": "yes",
    "highway": "bus_stop",
    "name": "Kulappuram",
    "public_transport": "platform"
  }
},
{
  "type": "node",
  "id": 7489024550,
  "lat": 9.5104147,
  "lon": 76.8307206,
  "tags": {
    "bus": "yes",
    "highway": "bus_stop",
    "name": "Manangalloor",
    "public_transport": "platform"
  }
},
{
  "type": "node",
  "id": 7489043981,
  "lat": 9.4990445,
  "lon": 76.5250610,
  "tags": {
    "bus": "yes",
    "highway": "bus_stop",
    "name": "Kurchi, Out Post",
    "public_transport": "platform"
  }
},
{
  "type": "node",
  "id": 7489130739,
  "lat": 9.5026851,
  "lon": 76.5082078,
  "tags": {
    "bus": "yes",
    "highway": "bus_stop",
    "name": "Karunattuvala",
    "name:ml": "കരുണാട്ടുവാല",
    "public_transport": "platform"
  }
},
{
  "type": "node",
  "id": 7489669069,
  "lat": 9.5828910,
  "lon": 76.4360315,
  "tags": {
    "bus": "yes",
    "highway": "bus_stop",
    "name": "Pandan Bazaar",
    "public_transport": "platform"
  }
},
{
  "type": "node",
  "id": 7489771399,
  "lat": 9.7645298,
  "lon": 76.7005993,
  "tags": {
    "highway": "bus_stop"
  }
},
{
  "type": "node",
  "id": 7489839723,
  "lat": 9.5546060,
  "lon": 76.7324101,
  "tags": {
    "bus": "yes",
    "highway": "bus_stop",
    "public_transport": "platform"
  }
},
{
  "type": "node",
  "id": 7489839744,
  "lat": 9.5593077,
  "lon": 76.7230313,
  "tags": {
    "bus": "yes",
    "highway": "bus_stop",
    "public_transport": "platform"
  }
},
{
  "type": "node",
  "id": 7489839757,
  "lat": 9.5506976,
  "lon": 76.7412564,
  "tags": {
    "bus": "yes",
    "highway": "bus_stop",
    "public_transport": "platform"
  }
},
{
  "type": "node",
  "id": 7490146780,
  "lat": 9.7017701,
  "lon": 76.7248612,
  "tags": {
    "addr:street": "Bharananganam",
    "bench": "yes",
    "bin": "no",
    "bus": "yes",
    "highway": "bus_stop",
    "lit": "no",
    "name": "Bharananganam",
    "name:ml": "ഭരണങ്ങാനം",
    "public_transport": "platform",
    "shelter": "yes"
  }
},
{
  "type": "node",
  "id": 7490907268,
  "lat": 9.4711317,
  "lon": 76.5895050,
  "tags": {
    "bus": "yes",
    "highway": "bus_stop",
    "name": "karikadam",
    "public_transport": "platform"
  }
},
{
  "type": "node",
  "id": 7491124884,
  "lat": 9.5862234,
  "lon": 76.4366993,
  "tags": {
    "bus": "yes",
    "highway": "bus_stop",
    "name": "Temple Junction",
    "public_transport": "platform"
  }
},
{
  "type": "node",
  "id": 7491732665,
  "lat": 9.6870298,
  "lon": 76.7841025,
  "tags": {
    "bus": "yes",
    "highway": "bus_stop",
    "public_transport": "platform"
  }
},
{
  "type": "node",
  "id": 7494209993,
  "lat": 9.7001629,
  "lon": 76.7273056,
  "tags": {
    "addr:street": "Bharananganam",
    "bench": "yes",
    "bin": "no",
    "bus": "yes",
    "highway": "bus_stop",
    "public_transport": "platform",
    "shelter": "yes"
  }
},
{
  "type": "node",
  "id": 7494209996,
  "lat": 9.6996721,
  "lon": 76.7280906,
  "tags": {
    "addr:street": "Bharananganam",
    "bench": "no",
    "bin": "no",
    "bus": "yes",
    "highway": "bus_stop",
    "lit": "no",
    "name": "Bharananganam Stop",
    "public_transport": "platform",
    "shelter": "no"
  }
},
{
  "type": "node",
  "id": 7494969948,
  "lat": 9.5628155,
  "lon": 76.7146685,
  "tags": {
    "bus": "yes",
    "highway": "bus_stop",
    "public_transport": "platform",
    "shelter": "yes"
  }
},
{
  "type": "node",
  "id": 7497197985,
  "lat": 9.7004058,
  "lon": 76.7583359,
  "tags": {
    "bench": "yes",
    "bin": "no",
    "bus": "yes",
    "departures_board": "no",
    "highway": "bus_stop",
    "public_transport": "platform",
    "shelter": "no"
  }
},
{
  "type": "node",
  "id": 7498041903,
  "lat": 9.7820917,
  "lon": 76.5325211,
  "tags": {
    "bus": "yes",
    "highway": "bus_stop",
    "name": "Kattampack Bus Stop",
    "public_transport": "platform"
  }
},
{
  "type": "node",
  "id": 7498847630,
  "lat": 9.7081693,
  "lon": 76.7613904,
  "tags": {
    "bench": "yes",
    "bin": "no",
    "bus": "yes",
    "departures_board": "no",
    "highway": "bus_stop",
    "lit": "no",
    "name": "Plassanal",
    "public_transport": "platform",
    "shelter": "yes"
  }
},
{
  "type": "node",
  "id": 7498847633,
  "lat": 9.7082921,
  "lon": 76.7613336,
  "tags": {
    "bench": "no",
    "bin": "no",
    "bus": "yes",
    "departures_board": "no",
    "highway": "bus_stop",
    "lit": "no",
    "name": "Plassanal Bus Stop",
    "public_transport": "platform",
    "shelter": "no"
  }
},
{
  "type": "node",
  "id": 7498968838,
  "lat": 9.5373644,
  "lon": 76.7214107,
  "tags": {
    "bus": "yes",
    "highway": "bus_stop",
    "public_transport": "platform"
  }
},
{
  "type": "node",
  "id": 7498968839,
  "lat": 9.5393922,
  "lon": 76.7189899,
  "tags": {
    "bus": "yes",
    "highway": "bus_stop",
    "name": "Chamampathal",
    "name:ml": "ചാമംപതാൽ",
    "public_transport": "platform"
  }
},
{
  "type": "node",
  "id": 7498968841,
  "lat": 9.5494153,
  "lon": 76.7152462,
  "tags": {
    "bus": "yes",
    "highway": "bus_stop",
    "public_transport": "platform",
    "shelter": "yes"
  }
},
{
  "type": "node",
  "id": 7498968843,
  "lat": 9.5273287,
  "lon": 76.7318637,
  "tags": {
    "bus": "yes",
    "highway": "bus_stop",
    "public_transport": "platform"
  }
},
{
  "type": "node",
  "id": 7499002874,
  "lat": 9.5388390,
  "lon": 76.7298940,
  "tags": {
    "bus": "yes",
    "highway": "bus_stop",
    "public_transport": "platform"
  }
},
{
  "type": "node",
  "id": 7499048349,
  "lat": 9.5773343,
  "lon": 76.7009123,
  "tags": {
    "bus": "yes",
    "highway": "bus_stop",
    "public_transport": "platform"
  }
},
{
  "type": "node",
  "id": 7499048350,
  "lat": 9.5904074,
  "lon": 76.6922858,
  "tags": {
    "bus": "yes",
    "highway": "bus_stop",
    "public_transport": "platform"
  }
},
{
  "type": "node",
  "id": 7500069112,
  "lat": 9.7778841,
  "lon": 76.5145696,
  "tags": {
    "bus": "yes",
    "highway": "bus_stop",
    "name": "Thiruvampady Bus Stop",
    "public_transport": "platform"
  }
},
{
  "type": "node",
  "id": 7502602492,
  "lat": 9.7021885,
  "lon": 76.7237134,
  "tags": {
    "bench": "yes",
    "highway": "bus_stop",
    "shelter": "yes"
  }
},
{
  "type": "node",
  "id": 7503415744,
  "lat": 9.7130053,
  "lon": 76.6868518,
  "tags": {
    "bench": "yes",
    "bus": "yes",
    "highway": "bus_stop",
    "name": "Stadium",
    "public_transport": "platform",
    "shelter": "yes"
  }
},
{
  "type": "node",
  "id": 7503718825,
  "lat": 9.5900735,
  "lon": 76.5209342,
  "tags": {
    "bus": "yes",
    "highway": "bus_stop",
    "name": "Thirunakkara Bus Stand",
    "public_transport": "platform"
  }
},
{
  "type": "node",
  "id": 7503718870,
  "lat": 9.5963200,
  "lon": 76.5101071,
  "tags": {
    "bus": "yes",
    "highway": "bus_stop",
    "name": "cheriapally",
    "public_transport": "platform"
  }
},
{
  "type": "node",
  "id": 7503718872,
  "lat": 9.5881960,
  "lon": 76.4883806,
  "tags": {
    "bus": "yes",
    "highway": "bus_stop",
    "name": "Illikkal",
    "public_transport": "platform"
  }
},
{
  "type": "node",
  "id": 7503718873,
  "lat": 9.5845498,
  "lon": 76.5061608,
  "tags": {
    "bus": "yes",
    "highway": "bus_stop",
    "name": "Thiruvathukkal",
    "name:ml": "തിരുവാതുക്കൽ",
    "public_transport": "platform"
  }
},
{
  "type": "node",
  "id": 7504132672,
  "lat": 9.5962155,
  "lon": 76.5122721,
  "tags": {
    "bus": "yes",
    "highway": "bus_stop",
    "name": "Aruthootti",
    "public_transport": "platform"
  }
},
{
  "type": "node",
  "id": 7507415133,
  "lat": 9.5856493,
  "lon": 76.4881551,
  "tags": {
    "bus": "yes",
    "highway": "bus_stop",
    "name": "Government ITI",
    "public_transport": "platform"
  }
},
{
  "type": "node",
  "id": 7507415134,
  "lat": 9.5841114,
  "lon": 76.4866142,
  "tags": {
    "bus": "yes",
    "highway": "bus_stop",
    "public_transport": "platform"
  }
},
{
  "type": "node",
  "id": 7507415135,
  "lat": 9.5817840,
  "lon": 76.4814174,
  "tags": {
    "bus": "yes",
    "highway": "bus_stop",
    "name": "Valyapalam",
    "public_transport": "platform"
  }
},
{
  "type": "node",
  "id": 7507873356,
  "lat": 9.5940573,
  "lon": 76.5023592,
  "tags": {
    "bus": "yes",
    "highway": "bus_stop",
    "name": "Alummood",
    "public_transport": "platform"
  }
},
{
  "type": "node",
  "id": 7507873357,
  "lat": 9.5939219,
  "lon": 76.5023425,
  "tags": {
    "bus": "yes",
    "highway": "bus_stop",
    "name": "Alummood",
    "public_transport": "platform"
  }
},
{
  "type": "node",
  "id": 7507873519,
  "lat": 9.5921934,
  "lon": 76.4948208,
  "tags": {
    "bus": "yes",
    "highway": "bus_stop",
    "name": "Paarappadam",
    "public_transport": "platform"
  }
},
{
  "type": "node",
  "id": 7507873564,
  "lat": 9.5887345,
  "lon": 76.4913824,
  "tags": {
    "bus": "yes",
    "highway": "bus_stop",
    "name": "Illikkal Bridge Junction",
    "public_transport": "platform"
  }
},
{
  "type": "node",
  "id": 7507873565,
  "lat": 9.5887115,
  "lon": 76.4914425,
  "tags": {
    "bus": "yes",
    "highway": "bus_stop",
    "name": "Illikkal Junction",
    "public_transport": "platform"
  }
},
{
  "type": "node",
  "id": 7507873566,
  "lat": 9.5885882,
  "lon": 76.4914325,
  "tags": {
    "bus": "yes",
    "highway": "bus_stop",
    "name": "Illikkal Bridge Junction",
    "public_transport": "platform"
  }
},
{
  "type": "node",
  "id": 7508310391,
  "lat": 9.8333419,
  "lon": 76.5155356,
  "tags": {
    "bus": "yes",
    "highway": "bus_stop",
    "public_transport": "platform"
  }
},
{
  "type": "node",
  "id": 7508358328,
  "lat": 9.8271654,
  "lon": 76.5018860,
  "tags": {
    "bus": "yes",
    "highway": "bus_stop",
    "public_transport": "platform"
  }
},
{
  "type": "node",
  "id": 7508554566,
  "lat": 9.5903248,
  "lon": 76.5156069,
  "tags": {
    "bus": "yes",
    "highway": "bus_stop",
    "name": "union club",
    "public_transport": "platform"
  }
},
{
  "type": "node",
  "id": 7508554583,
  "lat": 9.5883636,
  "lon": 76.5207750,
  "tags": {
    "bus": "yes",
    "highway": "bus_stop",
    "public_transport": "platform"
  }
},
{
  "type": "node",
  "id": 7508554584,
  "lat": 9.5876988,
  "lon": 76.5193086,
  "tags": {
    "bus": "yes",
    "highway": "bus_stop",
    "public_transport": "platform"
  }
},
{
  "type": "node",
  "id": 7508562685,
  "lat": 9.5876111,
  "lon": 76.5192838,
  "tags": {
    "bus": "yes",
    "highway": "bus_stop",
    "public_transport": "platform"
  }
},
{
  "type": "node",
  "id": 7508562686,
  "lat": 9.5876600,
  "lon": 76.5178836,
  "tags": {
    "bus": "yes",
    "highway": "bus_stop",
    "name": "Thekkumgopuram",
    "public_transport": "platform"
  }
},